,stop_code,stop_name,stop_lat,stop_lon,geometry
0,103021,Mission Rec Exchange Bay A,49.83712,-119.48059,POINT (-119.48059 49.83712)
1,103079,Orchard Park Exchange Bay G,49.88008,-119.44231,POINT (-119.44231 49.88008)
2,103022,Mission Rec Exchange Bay B,49.83693,-119.48062,POINT (-119.48062 49.83693)
3,102859,Queensway Exchange Bay E,49.88726,-119.49432,POINT (-119.49432 49.88726)
4,103077,Orchard Park Exchange Bay H,49.87962,-119.44228,POINT (-119.44228 49.87962)
5,103072,Orchard Park Exchange Bay D,49.88065,-119.44234,POINT (-119.44234 49.88065)
6,103193,Rutland Exchange Bay A,49.89064,-119.39239,POINT (-119.39239 49.89064)
7,103363,Rutland Rd S at Gray Rd,49.88848,-119.38698,POINT (-119.38698 49.88848)
8,103023,Mission Rec Exchange Bay C,49.8366,-119.48062,POINT (-119.48062 49.8366)
9,102861,Queensway Exchange Bay C,49.88726,-119.49483,POINT (-119.49483 49.88726)
10,990000,Kelowna Transit Centre,49.88611,-119.44785,POINT (-119.44785 49.88611)
11,103069,Orchard Park Exchange Bay A,49.88025,-119.44247,POINT (-119.44247 49.88025)
12,103430,McCurdy Rd E at Craig Rd,49.90185,-119.37751,POINT (-119.37751 49.90185)
13,140005,Westbank Exchange Bay B,49.82934,-119.63103,POINT (-119.63103 49.82934)
14,102855,Queensway Exchange Bay I,49.88738,-119.49449,POINT (-119.49449 49.88738)
15,102856,Queensway Exchange Bay H,49.88739,-119.49419,POINT (-119.49419 49.88739)
16,103327,Fitzpatrick Rd at Findlay Rd,49.90721,-119.39684,POINT (-119.39684 49.90721)
17,140103,UBCO Exchange Bay D,49.93935,-119.39373,POINT (-119.39373 49.93935)
18,140101,UBCO Exchange Bay B,49.93943,-119.39406,POINT (-119.39406 49.93943)
19,103030,Okanagan College Exchange Bay B,49.86105,-119.47988,POINT (-119.47988 49.86105)
20,140098,UBCO Exchange,49.93991,-119.39456,POINT (-119.39456 49.93991)
21,102860,Queensway Exchange Bay D,49.88726,-119.4946,POINT (-119.4946 49.88726)
22,102854,Queensway Exchange Bay J,49.88738,-119.49474,POINT (-119.49474 49.88738)
23,140006,Westbank Exchange Bay C,49.82876,-119.63088,POINT (-119.63088 49.82876)
24,102853,Queensway Exchange Bay B,49.88742,-119.4959,POINT (-119.4959 49.88742)
25,102862,Queensway Exchange Bay A,49.88742,-119.49615,POINT (-119.49615 49.88742)
26,140102,UBCO Exchange Bay C,49.93938,-119.39387,POINT (-119.39387 49.93938)
27,140010,Boucherie Mountain Exchange Bay D,49.86154,-119.58522,POINT (-119.58522 49.86154)
28,103472,Main St at Grant Cres,50.0273,-119.40354,POINT (-119.40354 50.0273)
29,140099,UBCO Exchange Bay A,49.93929,-119.39492,POINT (-119.39492 49.93929)
30,140011,Boucherie Mountain Exchange Bay E,49.86139,-119.58522,POINT (-119.58522 49.86139)
31,103016,South Pandosy Exchange Bay A,49.8604,-119.49115,POINT (-119.49115 49.8604)
32,140081,Shoreline Dr at Stillwater Way,50.06856,-119.42013,POINT (-119.42013 50.06856)
33,103070,Orchard Park Exchange Bay B,49.88041,-119.44248,POINT (-119.44248 49.88041)
34,103061,Harvey Ave at Cooper Stn - Orchard Park,49.88202,-119.44467,POINT (-119.44467 49.88202)
35,140004,Westbank Exchange Bay A,49.82865,-119.63102,POINT (-119.63102 49.82865)
36,103054,K.L.O. Rd at St Amand Rd,49.86108,-119.4663,POINT (-119.4663 49.86108)
37,140104,UBCO Exchange Bay E,49.93999,-119.39437,POINT (-119.39437 49.93999)
38,140009,Boucherie Mountain Exchange Bay C,49.86198,-119.58509,POINT (-119.58509 49.86198)
39,103067,Harvey Ave at Cooper Stn - Orchard Park,49.88176,-119.44216,POINT (-119.44216 49.88176)
40,103075,Orchard Park Exchange Bay F,49.88037,-119.44234,POINT (-119.44234 49.88037)
41,103071,Orchard Park Exchange Bay C,49.88056,-119.44248,POINT (-119.44248 49.88056)
42,103378,Hwy 33 E at Sadler Rd,49.88894,-119.38603,POINT (-119.38603 49.88894)
43,140148,Rutland Exchange Bay B,49.89065,-119.39187,POINT (-119.39187 49.89065)
44,140149,Rutland Exchange Bay C,49.89065,-119.39082,POINT (-119.39082 49.89065)
45,140100,UBCO Exchange,49.93948,-119.39427,POINT (-119.39427 49.93948)
46,102857,Queensway Exchange Bay G,49.88736,-119.49393,POINT (-119.49393 49.88736)
47,140151,Rutland Exchange Bay E,49.89056,-119.3918,POINT (-119.3918 49.89056)
48,140165,Boucherie Mountain Exchange Bay F,49.86222,-119.58388,POINT (-119.58388 49.86222)
49,140214,Westbank Exchange Bay E,49.82962,-119.63043,POINT (-119.63043 49.82962)
50,103041,Glenmore Rd at Summit Dr,49.90187,-119.45352,POINT (-119.45352 49.90187)
51,103028,Okanagan College Exchange Bay A,49.86127,-119.47932,POINT (-119.47932 49.86127)
52,140023,Gordon Dr at Laurier Ave,49.88237,-119.47716,POINT (-119.47716 49.88237)
53,102868,Water St at Leon Ave,49.88467,-119.49665,POINT (-119.49665 49.88467)
54,102881,Pandosy St at Buckland Ave,49.88166,-119.4951,POINT (-119.4951 49.88166)
55,102896,Pandosy St at Sutherland Ave,49.87905,-119.49294,POINT (-119.49294 49.87905)
56,102914,Pandosy St at Cadder Ave,49.87589,-119.4913,POINT (-119.4913 49.87589)
57,102928,Kelowna General Hospital Bay A,49.87391,-119.49134,POINT (-119.49134 49.87391)
58,102952,Pandosy St at Morrison Ave,49.86934,-119.49134,POINT (-119.49134 49.86934)
59,102961,Pandosy St at Patterson Ave,49.86803,-119.49133,POINT (-119.49133 49.86803)
60,102976,Pandosy St at Raymer Ave,49.86571,-119.49129,POINT (-119.49129 49.86571)
61,102982,Pandosy St at Groves Ave,49.86339,-119.49129,POINT (-119.49129 49.86339)
62,140244,K.L.O. Rd at Richter St,49.86196,-119.48878,POINT (-119.48878 49.86196)
63,103020,K.L.O. Rd at Casorso Rd,49.86093,-119.48492,POINT (-119.48492 49.86093)
64,102999,Lakeshore Rd at Cedar Ave,49.86167,-119.49131,POINT (-119.49131 49.86167)
65,103025,South Pandosy Exchange Bay B,49.86026,-119.49128,POINT (-119.49128 49.86026)
66,103062,Lakeshore Rd at Richter St,49.85481,-119.49002,POINT (-119.49002 49.85481)
67,103093,Lakeshore Rd at Bechard Rd,49.85151,-119.48697,POINT (-119.48697 49.85151)
68,103119,Lakeshore Rd at Barrera Rd,49.84868,-119.48634,POINT (-119.48634 49.84868)
69,103139,Lakeshore Rd at Cook Rd,49.84517,-119.48784,POINT (-119.48784 49.84517)
70,103152,Lakeshore Rd at Truswell Rd,49.84381,-119.48795,POINT (-119.48795 49.84381)
71,103185,Lakeshore Rd at Bluebird Rd,49.84032,-119.48865,POINT (-119.48865 49.84032)
72,103342,4100 Blk Lakeshore Rd,49.83785,-119.48796,POINT (-119.48796 49.83785)
73,103801,Lequime Rd at Gordon Dr,49.8356,-119.48437,POINT (-119.48437 49.8356)
74,103800,Lequime Rd at Gordon Dr,49.83559,-119.48483,POINT (-119.48483 49.83559)
75,103214,Lakeshore Rd at Lequime Rd,49.83651,-119.48721,POINT (-119.48721 49.83651)
76,103188,Lakeshore Rd at Lexington Dr,49.84046,-119.48847,POINT (-119.48847 49.84046)
77,103151,Lakeshore Rd at Truswell Rd,49.84396,-119.48769,POINT (-119.48769 49.84396)
78,103133,Lakeshore Rd at Cook Rd,49.84624,-119.48736,POINT (-119.48736 49.84624)
79,103113,Lakeshore Rd at Barrera Rd,49.84894,-119.48617,POINT (-119.48617 49.84894)
80,103091,Lakeshore Rd at Bechard Rd,49.85151,-119.48683,POINT (-119.48683 49.85151)
81,140243,Lakeshore Rd at Richter St,49.85482,-119.48989,POINT (-119.48989 49.85482)
82,103044,Lakeshore Rd at Lanfranco Rd,49.85714,-119.49113,POINT (-119.49113 49.85714)
83,102995,Pandosy St at K.L.O. Rd,49.86229,-119.49117,POINT (-119.49117 49.86229)
84,102984,Pandosy St at Groves Ave,49.86394,-119.49115,POINT (-119.49115 49.86394)
85,140053,Pandosy St at Osprey Ave,49.86579,-119.49115,POINT (-119.49115 49.86579)
86,102956,Pandosy St at Patterson Ave,49.8686,-119.49115,POINT (-119.49115 49.8686)
87,102930,Kelowna General Hospital Bay C,49.87353,-119.49118,POINT (-119.49118 49.87353)
88,102910,Pandosy St at Cadder Ave,49.87673,-119.49122,POINT (-119.49122 49.87673)
89,102892,Pandosy St at Sutherland Ave,49.8797,-119.49357,POINT (-119.49357 49.8797)
90,102883,Pandosy St at Buckland Ave,49.88135,-119.49494,POINT (-119.49494 49.88135)
91,102869,Water St at Leon Ave,49.8842,-119.49635,POINT (-119.49635 49.8842)
92,102865,Water St at Doyle Ave,49.88923,-119.49651,POINT (-119.49651 49.88923)
93,102870,Water St at Cawston Ave,49.89209,-119.49652,POINT (-119.49652 49.89209)
94,140233,Ellis St at Clement Ave,49.89404,-119.49347,POINT (-119.49347 49.89404)
95,102888,Ellis St at Industrial Ave,49.89581,-119.49349,POINT (-119.49349 49.89581)
96,102901,Ellis St at Recreation Ave,49.89799,-119.49346,POINT (-119.49346 49.89799)
97,102911,Ellis St at Roanoke Ave,49.89957,-119.49347,POINT (-119.49347 49.89957)
98,102919,Ellis St at Okanagan Blvd,49.90105,-119.49342,POINT (-119.49342 49.90105)
99,102924,Ellis St at Oxford Ave,49.90187,-119.49319,POINT (-119.49319 49.90187)
100,102932,Cambridge Ave at Ellis St,49.9035,-119.4924,POINT (-119.4924 49.9035)
101,102934,Cambridge Ave at Kingsway,49.90348,-119.49063,POINT (-119.49063 49.90348)
102,102935,Richter St at Cambridge Ave,49.90303,-119.48852,POINT (-119.48852 49.90303)
103,102922,Richter St at Okanagan Blvd,49.90119,-119.48853,POINT (-119.48853 49.90119)
104,102913,Richter St at Bay Ave,49.89928,-119.48853,POINT (-119.48853 49.89928)
105,102895,Richter St at Gaston Ave,49.89568,-119.48854,POINT (-119.48854 49.89568)
106,102885,Richter St at Clement Ave,49.89321,-119.48854,POINT (-119.48854 49.89321)
107,102879,Richter St at Wilson Ave,49.89102,-119.48855,POINT (-119.48855 49.89102)
108,102875,Richter St at Lawrence Ave,49.88563,-119.48856,POINT (-119.48856 49.88563)
109,103076,Enterprise Way at Cooper Rd,49.88322,-119.44167,POINT (-119.44167 49.88322)
110,103102,Dilworth Dr at Enterprise Way,49.88451,-119.43764,POINT (-119.43764 49.88451)
111,103099,Dilworth Dr at Leckie Rd,49.887,-119.43767,POINT (-119.43767 49.887)
112,103123,Dilworth Dr at Omineca Pl,49.89152,-119.43264,POINT (-119.43264 49.89152)
113,103147,Dilworth Dr at Cascade Pl,49.89277,-119.42812,POINT (-119.42812 49.89277)
114,103172,1000 Blk Dilworth Dr,49.89653,-119.426,POINT (-119.426 49.89653)
115,103170,Summit Dr at Dilworth Dr,49.8988,-119.4268,POINT (-119.4268 49.8988)
116,103143,Summit Dr at Purcell Dr,49.89963,-119.43066,POINT (-119.43066 49.89963)
117,103129,Summit Dr at Lillooet Cres E,49.89936,-119.43308,POINT (-119.43308 49.89936)
118,103111,Summit Dr at Skeena Dr,49.8986,-119.43643,POINT (-119.43643 49.8986)
119,103089,Summit Dr at Lillooet Cres W,49.89569,-119.43997,POINT (-119.43997 49.89569)
120,103083,Summit Dr at Denali Dr,49.89841,-119.44231,POINT (-119.44231 49.89841)
121,103052,Summit Dr at Valley Rd,49.9012,-119.45024,POINT (-119.45024 49.9012)
122,103051,Glenmore Rd at Glenmeadows Rd,49.904,-119.45297,POINT (-119.45297 49.904)
123,103090,Yates Rd at Glenmore Rd,49.90895,-119.44894,POINT (-119.44894 49.90895)
124,103098,Yates Rd at Valley Rd,49.90866,-119.44724,POINT (-119.44724 49.90866)
125,103053,Summit Dr at Valley Rd,49.90111,-119.45021,POINT (-119.45021 49.90111)
126,103082,Summit Dr at Denali Dr,49.89883,-119.44257,POINT (-119.44257 49.89883)
127,103095,Summit Dr at Chilcotin Cres,49.89592,-119.43912,POINT (-119.43912 49.89592)
128,103117,Summit Dr at Skeena Dr,49.89885,-119.43561,POINT (-119.43561 49.89885)
129,103128,Summit Dr at Lillooet Cres,49.89927,-119.43362,POINT (-119.43362 49.89927)
130,103148,Summit Dr at Nahanni Pl,49.89991,-119.4301,POINT (-119.4301 49.89991)
131,103168,Summit Dr at Dilworth Dr,49.89871,-119.4268,POINT (-119.4268 49.89871)
132,103166,1000 Blk Dilworth Dr,49.89692,-119.42629,POINT (-119.42629 49.89692)
133,103145,Dilworth Dr at Cascade Pl,49.89286,-119.42815,POINT (-119.42815 49.89286)
134,103118,Dilworth Dr at Omineca Pl,49.8912,-119.43322,POINT (-119.43322 49.8912)
135,103096,Dilworth Dr at Leckie Pl,49.88699,-119.43781,POINT (-119.43781 49.88699)
136,103101,Dilworth Dr at Enterprise Way,49.88438,-119.43778,POINT (-119.43778 49.88438)
137,103092,Enterprise Way at Dilworth Dr,49.88331,-119.43862,POINT (-119.43862 49.88331)
138,140047,Cadder Ave at Pandosy St,49.87632,-119.49074,POINT (-119.49074 49.87632)
139,140043,Cadder Ave at Richter St,49.87633,-119.48765,POINT (-119.48765 49.87633)
140,102929,Springfield Rd at Ethel St,49.87645,-119.48061,POINT (-119.48061 49.87645)
141,102941,Springfield Rd at Gordon Dr,49.87679,-119.47658,POINT (-119.47658 49.87679)
142,102954,Springfield Rd at Wilkinson St,49.8769,-119.47106,POINT (-119.47106 49.8769)
143,102979,Springfield Rd at Burtch Rd,49.87673,-119.46501,POINT (-119.46501 49.87673)
144,102990,Springfield Rd at Dayton St,49.87672,-119.46062,POINT (-119.46062 49.87672)
145,103004,Springfield Rd at Kirschner Rd,49.87677,-119.45797,POINT (-119.45797 49.87677)
146,103033,Springfield Rd at Spall Rd,49.87716,-119.45386,POINT (-119.45386 49.87716)
147,103056,Springfield Rd at Barlee Rd,49.87716,-119.44781,POINT (-119.44781 49.87716)
148,103121,Baron Rd at Underhill St,49.87958,-119.43414,POINT (-119.43414 49.87958)
149,103144,Baron Rd at Leckie Rd,49.88246,-119.42857,POINT (-119.42857 49.88246)
150,103169,1900 Blk Baron Rd,49.8837,-119.42518,POINT (-119.42518 49.8837)
151,103186,Baron Rd at Spedding Crt,49.88635,-119.42179,POINT (-119.42179 49.88635)
152,103204,Ziprick Rd at Terai Rd,49.88805,-119.4175,POINT (-119.4175 49.88805)
153,103222,Hwy 33 W at Taylor Rd,49.88903,-119.41316,POINT (-119.41316 49.88903)
154,103245,Hwy 33 W at Gerstmar Rd,49.88904,-119.40886,POINT (-119.40886 49.88904)
155,103264,Hwy 33 W at Davie Rd,49.88903,-119.40539,POINT (-119.40539 49.88903)
156,103278,Hwy 33 W at Barber Rd,49.88902,-119.4018,POINT (-119.4018 49.88902)
157,103296,Hwy 33 W at Hollywood Rd S,49.88896,-119.39876,POINT (-119.39876 49.88896)
158,103312,Hwy 33 W at Aurora Cres,49.88894,-119.39593,POINT (-119.39593 49.88894)
159,140152,Dougall Rd at Hwy 33 W,49.88942,-119.39279,POINT (-119.39279 49.88942)
160,140150,Rutland Exchange Bay D,49.89055,-119.39235,POINT (-119.39235 49.89055)
161,140164,Shepherd Rd at Roxby Rd,49.89054,-119.38836,POINT (-119.38836 49.89054)
162,103373,Rutland Rd N at Mugford Rd,49.89296,-119.3868,POINT (-119.3868 49.89296)
163,103376,Rutland Rd N at Briarwood Rd,49.89433,-119.38683,POINT (-119.38683 49.89433)
164,140216,Rutland Rd N at Bach Rd,49.89656,-119.3868,POINT (-119.3868 49.89656)
165,103384,Rutland Rd N at McCurdy Rd E,49.90151,-119.38674,POINT (-119.38674 49.90151)
166,102863,Rutland Rd N at Sumac Rd E,49.90388,-119.38677,POINT (-119.38677 49.90388)
167,102998,Rutland Rd N at Klassen Rd,49.90721,-119.38669,POINT (-119.38669 49.90721)
168,140246,Rutland Rd N at Rains Rd,49.91049,-119.38661,POINT (-119.38661 49.91049)
169,140112,Rutland Rd N at Commercial Dr,49.91558,-119.3859,POINT (-119.3859 49.91558)
170,140109,Acland Rd at Old Vernon Rd,49.91886,-119.38392,POINT (-119.38392 49.91886)
171,140108,Acland Rd at Penno Rd,49.92159,-119.38393,POINT (-119.38393 49.92159)
172,140106,Edwards Rd at Hwy 97,49.92447,-119.3858,POINT (-119.3858 49.92447)
173,102877,Bernard Ave at Richter St,49.88628,-119.48818,POINT (-119.48818 49.88628)
174,102893,Bernard Ave at Ethel St,49.88627,-119.48235,POINT (-119.48235 49.88627)
175,102902,Bernard Ave at Graham St,49.88631,-119.47974,POINT (-119.47974 49.88631)
176,102915,Bernard Ave at Gordon Dr,49.88625,-119.47605,POINT (-119.47605 49.88625)
177,102923,Bernard Ave at D'Anjou St,49.88631,-119.47413,POINT (-119.47413 49.88631)
178,102936,Bernard Ave at Richmond St,49.88628,-119.47099,POINT (-119.47099 49.88628)
179,140056,Bernard Ave at Elm St,49.88626,-119.4658,POINT (-119.4658 49.88626)
180,102974,Bernard Ave at Burtch Rd,49.88654,-119.46173,POINT (-119.46173 49.88654)
181,102728,Spall Rd at Bernard Ave,49.88798,-119.45463,POINT (-119.45463 49.88798)
182,103009,Enterprise Way at Spall Rd,49.88407,-119.45354,POINT (-119.45354 49.88407)
183,103036,Enterprise Way at Enterprise Crt,49.88316,-119.45031,POINT (-119.45031 49.88316)
184,103050,Enterprise Way at Hardy St,49.88325,-119.44694,POINT (-119.44694 49.88325)
185,103058,Enterprise Way at Cooper Rd,49.88324,-119.44458,POINT (-119.44458 49.88324)
186,103073,Orchard Park Exchange Bay E,49.8805,-119.44234,POINT (-119.44234 49.8805)
187,103105,Enterprise Way at Dilworth Dr,49.88322,-119.43689,POINT (-119.43689 49.88322)
188,103122,Enterprise Way at Leckie Rd,49.88404,-119.43275,POINT (-119.43275 49.88404)
189,103127,Enterprise Way at Hunter Rd,49.88592,-119.43166,POINT (-119.43166 49.88592)
190,140239,Enterprise Way at Banks Rd,49.88925,-119.42682,POINT (-119.42682 49.88925)
191,103002,Hwy 33 at Enterprise Way,49.8907,-119.42352,POINT (-119.42352 49.8907)
192,103354,Leathead Rd at Ford Rd,49.8956,-119.38807,POINT (-119.38807 49.8956)
193,103344,Leathead Rd at Pinetree Rd,49.89539,-119.39024,POINT (-119.39024 49.89539)
194,103322,Leathead Rd at Tartan Rd,49.89539,-119.39396,POINT (-119.39396 49.89539)
195,103287,Leathead Rd at Franklyn Rd,49.89543,-119.40033,POINT (-119.40033 49.89543)
196,103288,Franklyn Rd at Pearson Rd,49.89809,-119.40092,POINT (-119.40092 49.89809)
197,103292,Franklyn Rd at McCurdy Rd,49.90087,-119.40091,POINT (-119.40091 49.90087)
198,103283,McCurdy Rd at Mayfair Rd,49.90129,-119.40309,POINT (-119.40309 49.90129)
199,103081,McCurdy Rd at Alsgard St,49.90125,-119.40612,POINT (-119.40612 49.90125)
200,103300,Finns Rd at Fitzpatrick Rd,49.90654,-119.40249,POINT (-119.40249 49.90654)
201,103343,Fitzpatrick Rd at Chichester Crt,49.9072,-119.39401,POINT (-119.39401 49.9072)
202,103360,Fitzpatrick Rd at Stafford Rd,49.9072,-119.39121,POINT (-119.39121 49.9072)
203,103387,Fitzpatrick Rd at Aldon Rd,49.90719,-119.38815,POINT (-119.38815 49.90719)
204,103385,Rutland Rd N at Sumac Rd E,49.90334,-119.38691,POINT (-119.38691 49.90334)
205,103382,Rutland Rd N at McCurdy Rd,49.90065,-119.38688,POINT (-119.38688 49.90065)
206,103380,Rutland Rd N at Hartman Rd,49.89945,-119.38689,POINT (-119.38689 49.89945)
207,103377,Rutland Rd N at Leathead Rd,49.89668,-119.38696,POINT (-119.38696 49.89668)
208,103365,Rutland Rd N at Shepherd Rd,49.8909,-119.38698,POINT (-119.38698 49.8909)
209,103321,Hwy 33 W at Dougall Rd N,49.88912,-119.39428,POINT (-119.39428 49.88912)
210,103297,Hwy 33 W at Hollywood Rd N,49.88914,-119.39897,POINT (-119.39897 49.88914)
211,103274,Hwy 33 W at Franklyn Rd,49.88911,-119.40301,POINT (-119.40301 49.88911)
212,103260,Hwy 33 W at Bryden Rd,49.88912,-119.40635,POINT (-119.40635 49.88912)
213,103240,Hwy 33 W at Kneller Rd,49.88913,-119.41001,POINT (-119.41001 49.88913)
214,103221,Hwy 33 W at Nickel Rd,49.88912,-119.4134,POINT (-119.4134 49.88912)
215,103165,Enterprise Way at Powick Rd,49.89028,-119.42541,POINT (-119.42541 49.89028)
216,103141,Enterprise Way at Banks Rd,49.88868,-119.42863,POINT (-119.42863 49.88868)
217,103126,Enterprise Way at Leckie Rd,49.88561,-119.43186,POINT (-119.43186 49.88561)
218,103060,Enterprise Way at Cooper Rd,49.88333,-119.44438,POINT (-119.44438 49.88333)
219,103046,Enterprise Way at Hardy St,49.88332,-119.44811,POINT (-119.44811 49.88332)
220,103015,Enterprise Way at Spall Rd,49.88415,-119.4529,POINT (-119.4529 49.88415)
221,102991,Bernard Ave at Dilworth Cres,49.8884,-119.45621,POINT (-119.45621 49.8884)
222,102975,Bernard Ave at Cherry Cres W,49.887,-119.46121,POINT (-119.46121 49.887)
223,102964,Bernard Ave at Noble Crt,49.88634,-119.46366,POINT (-119.46366 49.88634)
224,102953,Bernard Ave at Highland Dr S,49.88635,-119.46602,POINT (-119.46602 49.88635)
225,102933,Bernard Ave at Richmond St,49.88637,-119.47123,POINT (-119.47123 49.88637)
226,102921,Bernard Ave at D'Anjou St,49.88636,-119.47432,POINT (-119.47432 49.88636)
227,102909,Bernard Ave at Gordon Dr,49.88643,-119.478,POINT (-119.478 49.88643)
228,102900,Bernard Ave at Graham St,49.88638,-119.48019,POINT (-119.48019 49.88638)
229,102889,Bernard Ave at Ethel St,49.88636,-119.48312,POINT (-119.48312 49.88636)
230,102874,Bernard Ave at Bertram St,49.88637,-119.48987,POINT (-119.48987 49.88637)
231,103416,McCurdy Rd E at Friesen Rd,49.90163,-119.38037,POINT (-119.38037 49.90163)
232,103396,McCurdy Rd E at Keyes Rd,49.90123,-119.38454,POINT (-119.38454 49.90123)
233,102886,Richter St at DeHart Ave,49.88192,-119.48865,POINT (-119.48865 49.88192)
234,102899,Sutherland Ave at Richter St,49.87981,-119.48813,POINT (-119.48813 49.87981)
235,102912,Sutherland Ave at Ethel St,49.87979,-119.48227,POINT (-119.48227 49.87979)
236,102920,Sutherland Ave at Lequime St,49.87978,-119.47865,POINT (-119.47865 49.87978)
237,102931,Sutherland Ave at Gordon Dr,49.88017,-119.47525,POINT (-119.47525 49.88017)
238,102938,Sutherland Ave at Capri St,49.88017,-119.47325,POINT (-119.47325 49.88017)
239,102945,Sutherland Ave at Pacific Crt,49.88017,-119.4713,POINT (-119.4713 49.88017)
240,102957,Sutherland Ave at Chandler St,49.88024,-119.46766,POINT (-119.46766 49.88024)
241,102970,Burtch Rd at Dickson Ave,49.87844,-119.46587,POINT (-119.46587 49.87844)
242,103086,Springfield Rd at Cooper Rd,49.8771,-119.44164,POINT (-119.44164 49.8771)
243,103138,Springfield Rd at Durnin Rd,49.87814,-119.43089,POINT (-119.43089 49.87814)
244,103189,Springfield Rd at Parkview Cres,49.88042,-119.42189,POINT (-119.42189 49.88042)
245,103205,Springfield Rd at Ziprick Rd,49.88036,-119.41841,POINT (-119.41841 49.88036)
246,103235,Springfield Rd at Gerstmar Rd,49.87881,-119.41188,POINT (-119.41188 49.87881)
247,103250,Gerstmar Rd at Thompson Rd,49.87903,-119.40941,POINT (-119.40941 49.87903)
248,103252,Graham Rd at Gerstmar Rd,49.88176,-119.40874,POINT (-119.40874 49.88176)
249,103277,Graham Rd at Matt Rd,49.88177,-119.40282,POINT (-119.40282 49.88177)
250,103289,Hollydell Rd at Stirling Rd,49.88276,-119.39981,POINT (-119.39981 49.88276)
251,103303,Hollywood Rd S at Perry Rd,49.88084,-119.3983,POINT (-119.3983 49.88084)
252,103307,Hollywood Rd S at Quigley Rd,49.87754,-119.39834,POINT (-119.39834 49.87754)
253,103309,Hollywood Rd S at Springfield Rd,49.87562,-119.39835,POINT (-119.39835 49.87562)
254,103313,Springfield Rd at Monterey Rd,49.87438,-119.39757,POINT (-119.39757 49.87438)
255,103334,Springfield Rd at Hollywood Rd S,49.87437,-119.39381,POINT (-119.39381 49.87437)
256,103357,Springfield Rd at Neptune Rd,49.87771,-119.38854,POINT (-119.38854 49.87771)
257,103367,Rutland Rd S at Jupiter Crt,49.88005,-119.38759,POINT (-119.38759 49.88005)
258,103372,Rutland Rd S at Belgo Rd,49.88213,-119.38689,POINT (-119.38689 49.88213)
259,103383,Husch Rd at Scarboro Rd,49.88365,-119.38526,POINT (-119.38526 49.88365)
260,103405,Husch Rd at Molnar Rd,49.88365,-119.38152,POINT (-119.38152 49.88365)
261,103411,Molnar Rd at Husch Rd,49.88419,-119.37963,POINT (-119.37963 49.88419)
262,103412,Molnar Rd at Holbrook Rd E,49.88578,-119.37969,POINT (-119.37969 49.88578)
263,103410,Molnar Rd at Milton Rd,49.88754,-119.37968,POINT (-119.37968 49.88754)
264,103421,Muir Rd at McKenzie Rd,49.88973,-119.37732,POINT (-119.37732 49.88973)
265,103428,Merrifield Rd at Mugford Rd,49.89233,-119.37614,POINT (-119.37614 49.89233)
266,103426,Hardie Rd at Hemlock Rd,49.8949,-119.37682,POINT (-119.37682 49.8949)
267,103429,Craig Rd at Hartman Rd,49.89947,-119.37696,POINT (-119.37696 49.89947)
268,103361,Rutland Rd S at Robson Rd W,49.88676,-119.38697,POINT (-119.38697 49.88676)
269,103364,Rutland Rd S at Holbrook Rd W,49.88519,-119.38699,POINT (-119.38699 49.88519)
270,103369,Rutland Rd S at Benchview Rd,49.8829,-119.38703,POINT (-119.38703 49.8829)
271,103366,Rutland Rd S at Jupiter Rd,49.87934,-119.38775,POINT (-119.38775 49.87934)
272,103346,Springfield Rd at Neptune Rd,49.87758,-119.39045,POINT (-119.39045 49.87758)
273,103331,Springfield Rd at Hollywood Rd S,49.87446,-119.3941,POINT (-119.3941 49.87446)
274,103310,Hollywood Rd S at Springfield Rd,49.87517,-119.39822,POINT (-119.39822 49.87517)
275,103308,Hollywood Rd S at Juniper Rd,49.87776,-119.3982,POINT (-119.3982 49.87776)
276,103304,Hollywood Rd S at Perry Rd,49.88117,-119.39815,POINT (-119.39815 49.88117)
277,103291,Hollydell Rd at Stirling Rd,49.88282,-119.39969,POINT (-119.39969 49.88282)
278,103271,Graham Rd at Matt Rd,49.88186,-119.40343,POINT (-119.40343 49.88186)
279,103253,Graham Rd at Irma Rd,49.88185,-119.40857,POINT (-119.40857 49.88185)
280,103246,Gerstmar Rd at Thompson Rd,49.87904,-119.40955,POINT (-119.40955 49.87904)
281,103227,Springfield Rd at Graham Rd,49.87976,-119.41336,POINT (-119.41336 49.87976)
282,103202,Springfield Rd at Ziprick Rd,49.88061,-119.41854,POINT (-119.41854 49.88061)
283,103190,Springfield Rd at Parkview Cres,49.88061,-119.4216,POINT (-119.4216 49.88061)
284,103156,Springfield Rd at Leckie Rd,49.87964,-119.42761,POINT (-119.42761 49.87964)
285,103130,Springfield Rd at Durnin Rd,49.87779,-119.43249,POINT (-119.43249 49.87779)
286,103097,Springfield Rd at Benvoulin Crt,49.87734,-119.44014,POINT (-119.44014 49.87734)
287,103057,Springfield Rd at Barlee Rd,49.87738,-119.44737,POINT (-119.44737 49.87738)
288,103014,Springfield Rd at Spall Rd,49.8772,-119.45597,POINT (-119.45597 49.8772)
289,102996,Springfield Rd at Kirschner Rd,49.87694,-119.45876,POINT (-119.45876 49.87694)
290,102986,Springfield Rd at Dayton St,49.87693,-119.46171,POINT (-119.46171 49.87693)
291,102972,Burtch Rd at Dickson Ave,49.8782,-119.46574,POINT (-119.46574 49.8782)
292,102944,Sutherland Ave at Pacific Crt,49.88025,-119.47239,POINT (-119.47239 49.88025)
293,102927,Sutherland Ave at Gordon Dr,49.88026,-119.47594,POINT (-119.47594 49.88026)
294,102917,Sutherland Ave at Bowes St,49.87987,-119.48026,POINT (-119.48026 49.87987)
295,102906,Sutherland Ave at Ethel St,49.87987,-119.4831,POINT (-119.4831 49.87987)
296,102897,Richter St at Sutherland Ave,49.88004,-119.48842,POINT (-119.48842 49.88004)
297,102887,Richter St at DeHart Ave,49.8822,-119.48838,POINT (-119.48838 49.8822)
298,140055,K.L.O. Rd at Benvoulin Rd East Side,49.86088,-119.45507,POINT (-119.45507 49.86088)
299,103114,K.L.O. Rd at Como Rd,49.86091,-119.45055,POINT (-119.45055 49.86091)
300,103149,K.L.O. Rd at Spiers Rd,49.8605,-119.44237,POINT (-119.44237 49.8605)
301,103232,K.L.O. Rd at McCulloch Rd,49.85955,-119.42419,POINT (-119.42419 49.85955)
302,103285,McCulloch Rd at Hart Rd,49.85346,-119.41668,POINT (-119.41668 49.85346)
303,103324,McCulloch Rd at Reekie Rd,49.85166,-119.4099,POINT (-119.4099 49.85166)
304,103348,3300 Blk McCulloch Rd,49.84643,-119.40986,POINT (-119.40986 49.84643)
305,103406,McCulloch Rd at June Springs Rd,49.8408,-119.40699,POINT (-119.40699 49.8408)
306,103420,3500 Blk McCulloch Rd,49.84037,-119.40298,POINT (-119.40298 49.84037)
307,103436,McCulloch Rd at Spaarpak Rd,49.84003,-119.40003,POINT (-119.40003 49.84003)
308,103458,McCulloch Rd at McClain Rd,49.83795,-119.39291,POINT (-119.39291 49.83795)
309,103489,McCulloch Rd at Gallagher's Canyon Blvd,49.83796,-119.38226,POINT (-119.38226 49.83796)
310,103461,McCulloch Rd at Eastwood Dr,49.83774,-119.39156,POINT (-119.39156 49.83774)
311,103433,McCulloch Rd at Spaarpak Rd,49.8401,-119.39967,POINT (-119.39967 49.8401)
312,103419,3500 Blk McCulloch Rd,49.84053,-119.40368,POINT (-119.40368 49.84053)
313,103399,McCulloch Rd at June Springs Rd,49.84102,-119.4083,POINT (-119.4083 49.84102)
314,103349,3300 Blk McCulloch Rd,49.84644,-119.40976,POINT (-119.40976 49.84644)
315,103323,McCulloch Rd at Reekie Rd,49.85199,-119.40978,POINT (-119.40978 49.85199)
316,103286,McCulloch Rd at Hart Rd,49.85344,-119.41593,POINT (-119.41593 49.85344)
317,103231,K.L.O. Rd at McCulloch Rd,49.85971,-119.42417,POINT (-119.42417 49.85971)
318,103146,K.L.O. Rd at Spiers Rd,49.86056,-119.44227,POINT (-119.44227 49.86056)
319,103116,K.L.O. Rd at Como Rd,49.86104,-119.44997,POINT (-119.44997 49.86104)
320,103414,Hwy 33 E at Molnar Rd,49.88894,-119.37879,POINT (-119.37879 49.88894)
321,103446,Hwy 33 E at Toovey Rd,49.8779,-119.36902,POINT (-119.36902 49.8779)
322,103490,Hwy 33 E at Hume Ave,49.86878,-119.36109,POINT (-119.36109 49.86878)
323,103531,Loseth Rd at Lynrick Rd,49.8675,-119.35471,POINT (-119.35471 49.8675)
324,103515,Loseth Rd at Autumn Rd,49.86608,-119.35416,POINT (-119.35416 49.86608)
325,103524,Sunrise Rd at Loseth Rd,49.86218,-119.35772,POINT (-119.35772 49.86218)
326,103539,Sunrise Rd at Lynrick Rd,49.86315,-119.35367,POINT (-119.35367 49.86315)
327,103550,Lynrick Rd at Autumn Rd,49.86528,-119.35062,POINT (-119.35062 49.86528)
328,103198,Lynrick Rd at Loseth Rd,49.86761,-119.35336,POINT (-119.35336 49.86761)
329,103538,Hwy 33 E at Oswell Dr,49.86825,-119.35058,POINT (-119.35058 49.86825)
330,103557,Black Mountain Dr at Begley Rd,49.86937,-119.34723,POINT (-119.34723 49.86937)
331,103554,Black Mountain Dr at Linda Ave,49.8708,-119.34797,POINT (-119.34797 49.8708)
332,103153,Black Mountain Dr at Large Ave,49.87201,-119.34848,POINT (-119.34848 49.87201)
333,103526,Large Ave at St Clare Crt,49.87188,-119.35377,POINT (-119.35377 49.87188)
334,103521,Loseth Dr at Feedham Ave,49.86921,-119.3554,POINT (-119.3554 49.86921)
335,103501,Hwy 33 E at Hume Ave,49.86906,-119.36299,POINT (-119.36299 49.86906)
336,103448,Hwy 33 E at Toovey Rd,49.87883,-119.36932,POINT (-119.36932 49.87883)
337,103477,Hwy 33 E at Langford Rd,49.88913,-119.37944,POINT (-119.37944 49.88913)
338,103482,Hwy 33 E at Sadler Rd,49.8891,-119.38583,POINT (-119.38583 49.8891)
339,103192,Hwy 33 E at Rutland Rd N,49.8891,-119.38773,POINT (-119.38773 49.8891)
340,140071,Hwy 97 at Butt Rd Stn,49.83717,-119.6142,POINT (-119.6142 49.83717)
341,140007,Boucherie Mountain Exchange Bay A,49.86207,-119.58528,POINT (-119.58528 49.86207)
342,140073,Hwy 97 at Westlake-Hudson Stn,49.86426,-119.56286,POINT (-119.56286 49.86426)
343,103745,Hwy 97 at Westside Rd Stn,49.88084,-119.535,POINT (-119.535 49.88084)
344,140049,Harvey Ave at Richter Stn,49.88354,-119.49035,POINT (-119.49035 49.88354)
345,140003,Harvey Ave at Gordon Stn,49.88333,-119.47533,POINT (-119.47533 49.88333)
346,103174,Hwy 97 N at Banks Stn,49.88688,-119.42413,POINT (-119.42413 49.88688)
347,103263,Hwy 97 N at McCurdy Stn,49.90245,-119.40752,POINT (-119.40752 49.90245)
348,140114,Hwy 97 N at Sexsmith Stn,49.91939,-119.38664,POINT (-119.38664 49.91939)
349,140113,Hwy 97 N at Sexsmith Stn,49.91696,-119.38904,POINT (-119.38904 49.91696)
350,103256,Hwy 97 N at McCurdy Stn,49.90021,-119.41008,POINT (-119.41008 49.90021)
351,103049,Hwy 97 N at Banks Stn,49.88563,-119.42664,POINT (-119.42664 49.88563)
352,102989,Harvey Ave at Parkinson Stn,49.88204,-119.45807,POINT (-119.45807 49.88204)
353,140002,Harvey Ave at Gordon Stn,49.88373,-119.4787,POINT (-119.4787 49.88373)
354,140000,Harvey Ave at Richter Stn,49.88379,-119.49144,POINT (-119.49144 49.88379)
355,103744,Hwy 97 at Westside Rd Stn,49.88178,-119.53628,POINT (-119.53628 49.88178)
356,140074,Hwy 97 at Westlake-Hudson Stn,49.86317,-119.56654,POINT (-119.56654 49.86317)
357,140008,Boucherie Mountain Exchange Bay B,49.86209,-119.58489,POINT (-119.58489 49.86209)
358,140072,Hwy 97 at Butt Rd Stn,49.83532,-119.61713,POINT (-119.61713 49.83532)
359,103802,Lakeshore Rd at Old Meadows Rd,49.83254,-119.4873,POINT (-119.4873 49.83254)
360,103803,Lakeshore Rd at Simeon Crt,49.8284,-119.48883,POINT (-119.48883 49.8284)
361,103804,Lakeshore Rd at Willms Rd,49.82605,-119.48884,POINT (-119.48884 49.82605)
362,103319,Lakeshore Rd at DeHart Rd,49.82253,-119.48892,POINT (-119.48892 49.82253)
363,103340,Lakeshore Rd at Eldorado Rd,49.82059,-119.49122,POINT (-119.49122 49.82059)
364,103355,Lakeshore Rd at Keith Rd,49.81814,-119.49415,POINT (-119.49415 49.81814)
365,103432,Chute Lake Rd at Barnaby Rd,49.8097,-119.49825,POINT (-119.49825 49.8097)
366,103445,Chute Lake Rd at Winery,49.80597,-119.49958,POINT (-119.49958 49.80597)
367,103806,Chute Lake Rd at Chute Lake Cres,49.80179,-119.49816,POINT (-119.49816 49.80179)
368,103808,Chute Lake Rd at South Crest Dr,49.79838,-119.4991,POINT (-119.4991 49.79838)
369,103810,5200 Blk Chute Lake Rd,49.7957,-119.5026,POINT (-119.5026 49.7957)
370,103811,Chute Lake Rd at Lark St,49.79539,-119.50863,POINT (-119.50863 49.79539)
371,103520,Quilchena Dr at Providence Ave,49.79664,-119.51164,POINT (-119.51164 49.79664)
372,103523,Quilchena Dr at Thalia St,49.79623,-119.51483,POINT (-119.51483 49.79623)
373,103533,400 Blk Quilchena Dr,49.79505,-119.51869,POINT (-119.51869 49.79505)
374,103540,Quilchena Dr at Raven Dr,49.79397,-119.52096,POINT (-119.52096 49.79397)
375,103562,Quilchena Dr at Providence Ave,49.79129,-119.52185,POINT (-119.52185 49.79129)
376,103814,South Perimeter Way at Farron Pl,49.78948,-119.51741,POINT (-119.51741 49.78948)
377,103813,Chute Lake Rd at Lakepointe Dr,49.79132,-119.51333,POINT (-119.51333 49.79132)
378,103812,Chute Lake Rd at Hedeman Crt,49.79458,-119.51064,POINT (-119.51064 49.79458)
379,103522,5200 Blk Chute Lake Rd,49.79561,-119.50219,POINT (-119.50219 49.79561)
380,103809,Chute Lake Rd at South Crest Dr,49.79886,-119.49889,POINT (-119.49889 49.79886)
381,103807,Chute Lake Rd at Chute Lake Cres,49.80189,-119.49785,POINT (-119.49785 49.80189)
382,103805,Chute Lake Rd at Barnaby Rd,49.80994,-119.49782,POINT (-119.49782 49.80994)
383,103347,Lakeshore Rd at Keith Rd,49.81881,-119.49314,POINT (-119.49314 49.81881)
384,103337,Lakeshore Rd at Eldorado Rd,49.82061,-119.49098,POINT (-119.49098 49.82061)
385,103317,Lakeshore Rd at DeHart Rd,49.82219,-119.48899,POINT (-119.48899 49.82219)
386,103290,Lakeshore Rd at Willms Rd,49.82597,-119.4887,POINT (-119.4887 49.82597)
387,103272,Lakeshore Rd at Simeon Crt,49.82828,-119.48869,POINT (-119.48869 49.82828)
388,103248,Lakeshore Rd at Old Meadows Rd,49.83198,-119.48779,POINT (-119.48779 49.83198)
389,103257,Gordon Dr at Welke Rd,49.83149,-119.48334,POINT (-119.48334 49.83149)
390,103817,Gordon Dr at Young Rd,49.82844,-119.48326,POINT (-119.48326 49.82844)
391,103305,Gordon Dr at Balsam Rd,49.82502,-119.48329,POINT (-119.48329 49.82502)
392,103316,DeHart Rd at Gordon Dr,49.823,-119.48252,POINT (-119.48252 49.823)
393,103298,DeHart Rd at Bartholomew Crt,49.82648,-119.47621,POINT (-119.47621 49.82648)
394,103295,Crawford Rd at DeHart Rd,49.82873,-119.46431,POINT (-119.46431 49.82873)
395,103368,1200 Blk Crawford Rd,49.82022,-119.4669,POINT (-119.4669 49.82022)
396,103401,Westridge Dr at Crawford Rd,49.81736,-119.46382,POINT (-119.46382 49.81736)
397,103423,Westridge Dr at Blueridge Rd,49.81368,-119.46525,POINT (-119.46525 49.81368)
398,103441,Westridge Dr at Appleridge Rd,49.81085,-119.46306,POINT (-119.46306 49.81085)
399,103444,Westridge Dr at Westridge Crt,49.80905,-119.46136,POINT (-119.46136 49.80905)
400,103464,Parkridge Dr at Westridge Dr,49.80764,-119.45594,POINT (-119.45594 49.80764)
401,103470,Parkridge Dr at Woodridge Rd,49.80949,-119.45623,POINT (-119.45623 49.80949)
402,103440,Parkridge Dr at Appleridge Rd,49.81226,-119.45691,POINT (-119.45691 49.81226)
403,103424,Parkridge Dr at Mission Ridge Dr,49.81499,-119.45803,POINT (-119.45803 49.81499)
404,104914,1200 Blk Crawford Rd,49.82041,-119.4668,POINT (-119.4668 49.82041)
405,103294,Crawford Rd at DeHart Rd,49.82868,-119.46415,POINT (-119.46415 49.82868)
406,103293,DeHart Rd at Bartholomew Crt,49.82657,-119.47627,POINT (-119.47627 49.82657)
407,103818,Gordon Dr at Tozer Crt,49.82426,-119.48314,POINT (-119.48314 49.82426)
408,103816,Gordon Dr at Young Rd,49.82893,-119.48313,POINT (-119.48313 49.82893)
409,103815,Gordon Dr at Old Meadows Rd,49.8324,-119.48308,POINT (-119.48308 49.8324)
410,103325,Gordon Dr at DeHart Rd,49.82218,-119.48322,POINT (-119.48322 49.82218)
411,103821,Gordon Dr at Raymer Rd,49.81886,-119.48325,POINT (-119.48325 49.81886)
412,103825,Gordon Dr at McClure Rd,49.81536,-119.48323,POINT (-119.48323 49.81536)
413,103826,Gordon Dr at Buck Rd,49.81367,-119.48318,POINT (-119.48318 49.81367)
414,103827,Gordon Dr at Paret Rd,49.81094,-119.47795,POINT (-119.47795 49.81094)
415,103829,900 Blk Gordon Dr,49.80969,-119.47163,POINT (-119.47163 49.80969)
416,103176,Gordon Dr at Steele Rd,49.80585,-119.47308,POINT (-119.47308 49.80585)
417,103177,Gordon Dr at Powerline Park,49.80533,-119.47633,POINT (-119.47633 49.80533)
418,103187,Gordon Dr at Frost Rd,49.80374,-119.47688,POINT (-119.47688 49.80374)
419,103191,South Ridge Dr at Frost Rd,49.80337,-119.48271,POINT (-119.48271 49.80337)
420,103451,Arbor View Dr at Windsong Cres W,49.80578,-119.48125,POINT (-119.48125 49.80578)
421,103833,Arbor View Dr at Windsong Cres E,49.80614,-119.4774,POINT (-119.4774 49.80614)
422,103439,900 Blk Gordon Dr,49.80993,-119.47199,POINT (-119.47199 49.80993)
423,103828,Gordon Dr at Paret Rd,49.81106,-119.47778,POINT (-119.47778 49.81106)
424,103408,Gordon Dr at Buck Rd,49.81364,-119.48294,POINT (-119.48294 49.81364)
425,103824,Gordon Dr at McClure Rd,49.81612,-119.48299,POINT (-119.48299 49.81612)
426,103820,Gordon Dr at Raymer Rd,49.81971,-119.48299,POINT (-119.48299 49.81971)
427,102884,Leon Ave at Richter St,49.88445,-119.48666,POINT (-119.48666 49.88445)
428,102891,Leon Ave at Ethel St,49.88444,-119.48386,POINT (-119.48386 49.88444)
429,102907,Bernard Ave at Gordon Dr,49.88626,-119.47807,POINT (-119.47807 49.88626)
430,102916,Lawrence Ave at Gordon Dr,49.88526,-119.47631,POINT (-119.47631 49.88526)
431,102925,Lawrence Ave at Kelglen Cres,49.88523,-119.47319,POINT (-119.47319 49.88523)
432,102937,Lawrence Ave at Richmond St,49.88523,-119.47072,POINT (-119.47072 49.88523)
433,102951,Lawrence Ave at Alta Vista Rd,49.88522,-119.46664,POINT (-119.46664 49.88522)
434,102971,Lawrence Ave at Burtch Rd,49.8844,-119.46287,POINT (-119.46287 49.8844)
435,102962,Burtch Rd at Kelglen Cres,49.88298,-119.46507,POINT (-119.46507 49.88298)
436,103011,Spall Rd at Windsor Rd,49.88042,-119.4547,POINT (-119.4547 49.88042)
437,103018,Spall Rd at Kent Rd,49.87864,-119.45469,POINT (-119.45469 49.87864)
438,103024,Spall Rd at Kent Rd,49.87888,-119.45447,POINT (-119.45447 49.87888)
439,103012,Spall Rd at Windsor Rd,49.88087,-119.45438,POINT (-119.45438 49.88087)
440,102963,Burtch Rd at Kelglen Cres,49.88286,-119.46508,POINT (-119.46508 49.88286)
441,102969,Lawrence Ave at Burtch Rd,49.88455,-119.46294,POINT (-119.46294 49.88455)
442,102948,Lawrence Ave at Lakeview St,49.88532,-119.46744,POINT (-119.46744 49.88532)
443,102942,Lawrence Ave at Richmond St,49.8853,-119.47019,POINT (-119.47019 49.8853)
444,102926,Lawrence Ave at Kelglen Cres,49.88532,-119.47289,POINT (-119.47289 49.88532)
445,102918,Lawrence Ave at Gordon Dr,49.88534,-119.47589,POINT (-119.47589 49.88534)
446,102890,Leon Ave at Ethel St,49.88453,-119.48369,POINT (-119.48369 49.88453)
447,102882,Leon Ave at Richter St,49.88454,-119.4869,POINT (-119.4869 49.88454)
448,140044,Ellis St at Doyle Ave,49.89038,-119.49347,POINT (-119.49347 49.89038)
449,140018,Ellis St at Clement Ave,49.89318,-119.49347,POINT (-119.49347 49.89318)
450,140019,Clement Ave at Richter St,49.89353,-119.48794,POINT (-119.48794 49.89353)
451,140020,Clement Ave at Ethel St,49.89351,-119.4823,POINT (-119.4823 49.89351)
452,140021,Gordon Dr at Coronation Ave,49.89238,-119.47706,POINT (-119.47706 49.89238)
453,140022,Gordon Dr at Bernard Ave,49.88678,-119.47713,POINT (-119.47713 49.88678)
454,140237,Gordon Dr at Sutherland Ave,49.87937,-119.47727,POINT (-119.47727 49.87937)
455,102939,Gordon Dr at Springfield Rd,49.87646,-119.47723,POINT (-119.47723 49.87646)
456,102958,Gordon Dr at Guisachan Rd,49.87245,-119.47608,POINT (-119.47608 49.87245)
457,102978,Gordon Dr at Cameron Ave,49.86989,-119.47471,POINT (-119.47471 49.86989)
458,103006,Gordon Dr at Raymer Ave,49.86456,-119.47437,POINT (-119.47437 49.86456)
459,140024,Gordon Dr at K.L.O. Rd,49.86022,-119.47447,POINT (-119.47447 49.86022)
460,140025,Gordon Dr at Lanfranco Rd,49.85706,-119.47451,POINT (-119.47451 49.85706)
461,140026,Gordon Dr at Casorso Rd,49.85055,-119.47694,POINT (-119.47694 49.85055)
462,140027,Gordon Dr at Cook Rd,49.84517,-119.48059,POINT (-119.48059 49.84517)
463,140012,Gordon Dr at Lexington Dr,49.83934,-119.48239,POINT (-119.48239 49.83934)
464,140028,Gordon Dr at Lexington Dr,49.83991,-119.48209,POINT (-119.48209 49.83991)
465,140029,Gordon Dr at Cook Rd,49.84572,-119.47987,POINT (-119.47987 49.84572)
466,140030,Gordon Dr at Casorso Rd,49.85125,-119.47618,POINT (-119.47618 49.85125)
467,140031,Gordon Dr at Bothe Rd,49.85768,-119.4742,POINT (-119.4742 49.85768)
468,140032,Gordon Dr at K.L.O. Rd,49.86018,-119.47416,POINT (-119.47416 49.86018)
469,140033,Gordon Dr at Raymer Ave,49.86533,-119.47407,POINT (-119.47407 49.86533)
470,140034,Gordon Dr at Cameron Ave,49.87056,-119.47472,POINT (-119.47472 49.87056)
471,140035,Gordon Dr at Guisachan Rd,49.87318,-119.47612,POINT (-119.47612 49.87318)
472,140036,Gordon Dr at Springfield Rd,49.87724,-119.47694,POINT (-119.47694 49.87724)
473,140236,Gordon Dr at Sutherland Ave,49.88044,-119.47687,POINT (-119.47687 49.88044)
474,140037,Gordon Dr at Harvey Ave,49.88259,-119.47687,POINT (-119.47687 49.88259)
475,140038,Gordon Dr at Bernard Ave,49.88689,-119.47684,POINT (-119.47684 49.88689)
476,140039,Gordon Dr at Cawston Ave,49.89185,-119.47692,POINT (-119.47692 49.89185)
477,140040,Clement Ave at Ethel St,49.89359,-119.4833,POINT (-119.4833 49.89359)
478,140041,Clement Ave at Richter St,49.89365,-119.48933,POINT (-119.48933 49.89365)
479,140042,Ellis St at Clement Ave,49.89315,-119.49361,POINT (-119.49361 49.89315)
480,140057,Ellis St at Doyle Ave,49.88954,-119.49363,POINT (-119.49363 49.88954)
481,103660,Berry Rd at Bottom Wood Lake Rd,50.02947,-119.40276,POINT (-119.40276 50.02947)
482,103657,Hwy 97 at Pollard Rd,50.02626,-119.40528,POINT (-119.40528 50.02626)
483,103655,Hwy 97 at Okanagan Centre Rd,50.02177,-119.40668,POINT (-119.40668 50.02177)
484,103652,Hwy 97 at Commonwealth Rd,50.00711,-119.40312,POINT (-119.40312 50.00711)
485,140238,Innovation Dr at Airport Way,49.95172,-119.38978,POINT (-119.38978 49.95172)
486,140160,Innovation Dr at University Way,49.94336,-119.39014,POINT (-119.39014 49.94336)
487,103201,Ziprick Rd at Terai Rd,49.88831,-119.41764,POINT (-119.41764 49.88831)
488,103184,Baron Rd at Spedding Crt,49.88631,-119.42205,POINT (-119.42205 49.88631)
489,103171,Baron Rd at Banks Rd,49.88431,-119.42479,POINT (-119.42479 49.88431)
490,103142,Baron Rd at Leckie Rd,49.88249,-119.42873,POINT (-119.42873 49.88249)
491,103125,Baron Rd at Underhill St,49.87964,-119.43327,POINT (-119.43327 49.87964)
492,103108,Dilworth Dr at Baron Rd,49.8789,-119.43703,POINT (-119.43703 49.8789)
493,102973,Springfield Rd at Burtch Rd,49.87707,-119.46632,POINT (-119.46632 49.87707)
494,102950,Springfield Rd at Wilkinson St,49.8771,-119.47202,POINT (-119.47202 49.8771)
495,140048,Springfirld Rd at Gordon Dr,49.87687,-119.47815,POINT (-119.47815 49.87687)
496,140045,Cadder Ave at Ethel St,49.8764,-119.48314,POINT (-119.48314 49.8764)
497,140046,Cadder Ave at Richter St,49.87642,-119.48892,POINT (-119.48892 49.87642)
498,102866,Doyle Ave at Saint Paul St,49.88895,-119.4915,POINT (-119.4915 49.88895)
499,102880,Richter St at Fuller Ave,49.89061,-119.48841,POINT (-119.48841 49.89061)
500,102898,Cawston Ave at Ethel St,49.89159,-119.48234,POINT (-119.48234 49.89159)
501,102908,Graham St at Clement Ave,49.89322,-119.47981,POINT (-119.47981 49.89322)
502,140051,Clement Ave at Gordon Dr,49.8934,-119.47588,POINT (-119.47588 49.8934)
503,103029,Clement Ave at Cerise Dr,49.89239,-119.47059,POINT (-119.47059 49.89239)
504,102960,Clifton Rd at Hartwick St,49.89365,-119.4657,POINT (-119.4657 49.89365)
505,102966,Clifton Rd at Lambert Ave,49.89544,-119.46565,POINT (-119.46565 49.89544)
506,102977,High Rd at Glengarry St,49.89773,-119.46413,POINT (-119.46413 49.89773)
507,102988,High Rd at Tronson Dr,49.89915,-119.46132,POINT (-119.46132 49.89915)
508,103010,High Rd at Kennedy St,49.90041,-119.45754,POINT (-119.45754 49.90041)
509,103087,Glenmore Rd at Yates Rd,49.90967,-119.45011,POINT (-119.45011 49.90967)
510,103107,Glenmore Rd at Watson Rd,49.91165,-119.44873,POINT (-119.44873 49.91165)
511,103136,Glenmore Rd at Kane Rd,49.91616,-119.44563,POINT (-119.44563 49.91616)
512,103159,Glenmore Rd at Dallas Rd,49.91841,-119.44403,POINT (-119.44403 49.91841)
513,140131,Glenmore Rd at Cross Rd,49.92337,-119.43833,POINT (-119.43833 49.92337)
514,140132,Glenmore Rd at Union Rd,49.92765,-119.43474,POINT (-119.43474 49.92765)
515,140134,Glenmore Rd N at Scenic Rd,49.93297,-119.43329,POINT (-119.43329 49.93297)
516,140242,Glenmore Rd N at Begbie Rd,49.94145,-119.43094,POINT (-119.43094 49.94145)
517,140136,John Hindle Dr at Glenmore Rd N,49.94691,-119.42356,POINT (-119.42356 49.94691)
518,140162,John Hindle Dr at Glenmore Landfill,49.94409,-119.4123,POINT (-119.4123 49.94409)
519,140138,John Hindle Dr at Academy Way,49.93838,-119.40154,POINT (-119.40154 49.93838)
520,140139,John Hindle Dr at Upper Campus Way,49.93867,-119.40171,POINT (-119.40171 49.93867)
521,140137,John Hindle Dr at Glenmore Rd N,49.94758,-119.42474,POINT (-119.42474 49.94758)
522,140241,Glenmore Rd N at Begbie Rd,49.9414,-119.43123,POINT (-119.43123 49.9414)
523,140135,Glenmore Rd N at Scenic Rd,49.93288,-119.43344,POINT (-119.43344 49.93288)
524,140133,Glenmore Rd at Union Rd,49.9263,-119.43606,POINT (-119.43606 49.9263)
525,103104,Glenmore Rd at Cross Rd,49.9224,-119.43994,POINT (-119.43994 49.9224)
526,103154,Glenmore Rd at Dallas Rd,49.91798,-119.44468,POINT (-119.44468 49.91798)
527,103131,Glenmore Rd at Ballou Rd,49.91564,-119.44633,POINT (-119.44633 49.91564)
528,103103,Glenmore Rd at Watson Rd,49.91122,-119.44942,POINT (-119.44942 49.91122)
529,103080,Glenmore Rd at Yates Rd,49.90911,-119.4509,POINT (-119.4509 49.90911)
530,103048,Glenmore Rd at Glenmeadows Rd,49.90405,-119.45336,POINT (-119.45336 49.90405)
531,103005,High Rd at Kennedy St,49.90041,-119.45849,POINT (-119.45849 49.90041)
532,102987,High Rd at Tronson Dr,49.89847,-119.46225,POINT (-119.46225 49.89847)
533,102968,Clifton Rd at Lynwood Cres,49.89726,-119.46588,POINT (-119.46588 49.89726)
534,102965,Clifton Rd at Lambert Ave,49.8959,-119.4659,POINT (-119.4659 49.8959)
535,102959,Clifton Rd at Hartwick St,49.89387,-119.46595,POINT (-119.46595 49.89387)
536,103031,Clement Ave at Cerise Dr,49.89277,-119.47138,POINT (-119.47138 49.89277)
537,140050,Clement Ave at Gordon Dr,49.89372,-119.47777,POINT (-119.47777 49.89372)
538,102905,Graham St at Clement Ave,49.89328,-119.47995,POINT (-119.47995 49.89328)
539,102903,Cawston Ave at Graham St,49.89167,-119.48059,POINT (-119.48059 49.89167)
540,102894,Cawston Ave at Ethel St,49.89168,-119.48331,POINT (-119.48331 49.89168)
541,102867,Doyle Ave at Bertram St,49.88904,-119.49058,POINT (-119.49058 49.88904)
542,103003,Glenmore Dr at Bernard Ave,49.88905,-119.45421,POINT (-119.45421 49.88905)
543,103008,Glenmore Dr at Highland Dr N,49.89407,-119.45415,POINT (-119.45415 49.89407)
544,103026,Glenmore Dr at Mountain Ave,49.89679,-119.45408,POINT (-119.45408 49.89679)
545,103140,Kane Rd at Drysdale Blvd,49.91535,-119.44385,POINT (-119.44385 49.91535)
546,103243,Union Rd at Valley Rd N,49.9254,-119.43203,POINT (-119.43203 49.9254)
547,103035,Glenmore Rd at High Rd,49.89996,-119.45438,POINT (-119.45438 49.89996)
548,103013,Glenmore Rd at Mountain Ave,49.89592,-119.45449,POINT (-119.45449 49.89592)
549,103007,Glenmore Rd at Highland Dr N,49.89402,-119.45454,POINT (-119.45454 49.89402)
550,103000,Glenmore Rd at Dilworth Cres,49.88976,-119.45456,POINT (-119.45456 49.88976)
551,103132,Cross Rd at Glenmore Rd,49.92343,-119.44008,POINT (-119.44008 49.92343)
552,103206,Snowsell St at Cross Rd,49.92446,-119.44177,POINT (-119.44177 49.92446)
553,103226,Snowsell St at Porthill Dr,49.92719,-119.43902,POINT (-119.43902 49.92719)
554,103236,Union Rd at Wyndham Cres,49.92785,-119.43703,POINT (-119.43703 49.92785)
555,140159,Innovation Dr at University Way,49.94257,-119.39061,POINT (-119.39061 49.94257)
556,104916,Innovation Dr at Airport Way,49.95166,-119.38964,POINT (-119.38964 49.95166)
557,103611,Hwy 97 at Old Vernon Rd,49.97077,-119.38572,POINT (-119.38572 49.97077)
558,103650,Hwy 97 at Parkinson Dr,50.00075,-119.40285,POINT (-119.40285 50.00075)
559,103653,Hwy 97 at Commonwealth Rd,50.00833,-119.4028,POINT (-119.4028 50.00833)
560,103654,Hwy 97 at Beaver Lake Rd,50.02081,-119.40618,POINT (-119.40618 50.02081)
561,103658,Main St at Winfield Rd,50.02352,-119.40417,POINT (-119.40417 50.02352)
562,103661,Bottom Wood Lake Rd at G Elliot Secondar,50.03105,-119.40199,POINT (-119.40199 50.03105)
563,103663,Lodge Rd at Bottom Wood Lake Rd,50.0347,-119.40096,POINT (-119.40096 50.0347)
564,103666,10300 Blk Lodge Rd,50.03466,-119.39335,POINT (-119.39335 50.03466)
565,103673,Lodge Rd at Quail Rd,50.04069,-119.39199,POINT (-119.39199 50.04069)
566,103676,Lodge Rd at Sherman Dr,50.04299,-119.39142,POINT (-119.39142 50.04299)
567,103678,11200 Blk Lodge Rd,50.04514,-119.39088,POINT (-119.39088 50.04514)
568,103684,Woodsdale Rd at Lodge Rd,50.04938,-119.39092,POINT (-119.39092 50.04938)
569,103683,Woodsdale Rd at Reiswig Rd,50.04933,-119.39768,POINT (-119.39768 50.04933)
570,103681,Woodsdale Rd at Bottom Wood Lake Rd,50.04934,-119.40267,POINT (-119.40267 50.04934)
571,140001,Woodsdale Rd at Rogers Rd,50.04933,-119.40399,POINT (-119.40399 50.04933)
572,103679,Woodsdale Rd at Turtle Bay Crt,50.04934,-119.40772,POINT (-119.40772 50.04934)
573,103688,Okanagan Centre Rd at Oceola Rd,50.06003,-119.41859,POINT (-119.41859 50.06003)
574,103677,Okanagan Centre Rd at Davidson Rd,50.05003,-119.41913,POINT (-119.41913 50.05003)
575,103674,11300 Blk Okanagan Centre Rd,50.04746,-119.41834,POINT (-119.41834 50.04746)
576,103670,Okanagan Centre Rd at Williams Rd,50.04408,-119.41669,POINT (-119.41669 50.04408)
577,103668,Okanagan Centre Rd at Seaton Rd,50.04127,-119.41452,POINT (-119.41452 50.04127)
578,103662,Okanagan Centre Rd at Camp Rd,50.03587,-119.41149,POINT (-119.41149 50.03587)
579,103659,Okanagan Centre Rd at Berry Rd,50.03079,-119.41034,POINT (-119.41034 50.03079)
580,140105,Edwards Rd at Hwy 97,49.92429,-119.38502,POINT (-119.38502 49.92429)
581,140107,Acland Rd at Penno Rd,49.92214,-119.38407,POINT (-119.38407 49.92214)
582,140111,Rutland Rd N at Commercial Dr,49.91505,-119.38664,POINT (-119.38664 49.91505)
583,140245,Rutland Rd N at Rains Rd,49.91014,-119.38691,POINT (-119.38691 49.91014)
584,103608,Lower Glenrosa Rd at Paynter Rd,49.82971,-119.63564,POINT (-119.63564 49.82971)
585,103621,Lower Glenrosa Rd at Glenway Rd,49.82656,-119.64675,POINT (-119.64675 49.82656)
586,103632,Lower Glenrosa Rd at Glen Crt,49.82501,-119.65077,POINT (-119.65077 49.82501)
587,103630,Lower Glenrosa Rd at Glenford Rd,49.82818,-119.65282,POINT (-119.65282 49.82818)
588,103614,Webber Rd at Dunbarton Rd,49.83901,-119.65335,POINT (-119.65335 49.83901)
589,103615,Webber Rd at McAllister Rd,49.84093,-119.65547,POINT (-119.65547 49.84093)
590,103618,Webber Rd at McRae Rd,49.84307,-119.65903,POINT (-119.65903 49.84307)
591,103622,Webber Rd at McGregor Rd,49.84535,-119.66172,POINT (-119.66172 49.84535)
592,103624,McNair Rd at Webber Rd,49.84718,-119.66355,POINT (-119.66355 49.84718)
593,103629,McIver Rd at McRobbie Rd,49.8467,-119.66575,POINT (-119.66575 49.8467)
594,103626,McIver Rd at McBain Rd,49.84375,-119.66364,POINT (-119.66364 49.84375)
595,103625,McIver Rd at McRae Rd,49.84196,-119.662,POINT (-119.662 49.84196)
596,103628,McIver Rd at McTaggart Rd,49.83965,-119.66108,POINT (-119.66108 49.83965)
597,103634,McIver Rd at Glenrosa Rd,49.83432,-119.65978,POINT (-119.65978 49.83432)
598,103640,Glenrosa Rd at Parkhurst Rd,49.83652,-119.66334,POINT (-119.66334 49.83652)
599,103642,McGinnis Rd at Liard Crt,49.83894,-119.66637,POINT (-119.66637 49.83894)
600,103633,McGinnis Rd at McGee Crt,49.84223,-119.66491,POINT (-119.66491 49.84223)
601,103631,McLeod Rd at McGinnis Rd,49.844,-119.66541,POINT (-119.66541 49.844)
602,103636,McLeod Rd at McCoy Rd,49.84589,-119.66771,POINT (-119.66771 49.84589)
603,103638,McLeod Rd at Blue Jay Dr,49.84748,-119.66933,POINT (-119.66933 49.84748)
604,103641,Canary Dr at Blue Jay Dr,49.8487,-119.67165,POINT (-119.67165 49.8487)
605,103646,Oriole Dr at Canary Dr,49.84766,-119.67301,POINT (-119.67301 49.84766)
606,103648,Salmon Rd at Oriole Dr,49.84566,-119.67284,POINT (-119.67284 49.84566)
607,103644,Gates Rd at McMurchie Rd,49.84472,-119.67019,POINT (-119.67019 49.84472)
608,103647,Gates Rd at McPherson Rd,49.842,-119.67023,POINT (-119.67023 49.842)
609,103649,Gates Rd at Glenrosa Rd,49.8409,-119.67024,POINT (-119.67024 49.8409)
610,103645,Glenrosa Rd at Rosedale Crt,49.83822,-119.66739,POINT (-119.66739 49.83822)
611,103639,Glenrosa Rd at McIver Rd W,49.83463,-119.66181,POINT (-119.66181 49.83463)
612,103637,Glenrosa Rd at Glen Abbey Pl,49.83202,-119.65859,POINT (-119.65859 49.83202)
613,103643,Glenrosa Rd at Dunfield Rd,49.8242,-119.65376,POINT (-119.65376 49.8242)
614,103595,Old Okanagan Hwy at Drought Rd,49.83014,-119.62535,POINT (-119.62535 49.83014)
615,103584,3600 Blk Old Okanagan Hwy,49.83343,-119.62537,POINT (-119.62537 49.83343)
616,103563,Old Okanagan Hwy at Butt Rd,49.8371,-119.6254,POINT (-119.6254 49.8371)
617,103551,Old Okanagan Hwy at Chieftain Rd,49.8403,-119.62544,POINT (-119.62544 49.8403)
618,103541,3300 Blk Old Okanagan Hwy,49.84244,-119.62545,POINT (-119.62545 49.84244)
619,103516,Shannon Lake Rd at Old Okanagan Hwy,49.84616,-119.62221,POINT (-119.62221 49.84616)
620,103493,Shannon Lake Rd at Shannon Way,49.84953,-119.61979,POINT (-119.61979 49.84953)
621,140170,Shannon Way at Westville Way,49.84892,-119.6154,POINT (-119.6154 49.84892)
622,140193,Woodstock Dr at Sandstone Dr,49.85024,-119.61384,POINT (-119.61384 49.85024)
623,140194,Shannon Ridge Dr at Ridge Pl,49.85339,-119.61379,POINT (-119.61379 49.85339)
624,140195,Shannon Ridge Dr at Shannon Green Crt,49.85472,-119.61117,POINT (-119.61117 49.85472)
625,140177,2200 Blk Shannon Ridge Dr,49.85579,-119.60559,POINT (-119.60559 49.85579)
626,140179,2900 Blk Auburn Rd,49.85562,-119.60073,POINT (-119.60073 49.85562)
627,140168,Daimler Dr at Auburn Rd,49.85732,-119.59814,POINT (-119.59814 49.85732)
628,140182,Byland Rd at Compass Crt,49.86075,-119.58947,POINT (-119.58947 49.86075)
629,103265,Ross Rd at Brentwood Rd,49.86081,-119.5774,POINT (-119.5774 49.86081)
630,103279,Ross Rd at Applegreen Crt,49.86082,-119.58009,POINT (-119.58009 49.86082)
631,103301,Ross Rd at Riffington Pl,49.86086,-119.58389,POINT (-119.58389 49.86086)
632,140202,Byland Rd at Compass Crt,49.86083,-119.58954,POINT (-119.58954 49.86083)
633,140203,Byland Rd at Kyle Rd,49.85816,-119.59337,POINT (-119.59337 49.85816)
634,140209,Daimler Dr at Auburn Rd,49.85751,-119.5984,POINT (-119.5984 49.85751)
635,140199,Auburn Rd at Shelby Cres,49.85639,-119.60087,POINT (-119.60087 49.85639)
636,140200,Auburn Rd at Shannon Ridge Dr,49.85377,-119.60086,POINT (-119.60086 49.85377)
637,140198,2200 Blk Shannon Ridge Dr,49.85589,-119.6056,POINT (-119.6056 49.85589)
638,140208,Shannon Ridge Dr at Shannon Green Crt,49.85453,-119.61203,POINT (-119.61203 49.85453)
639,140207,Shannon Ridge Dr at Lakeside Crt,49.85361,-119.61363,POINT (-119.61363 49.85361)
640,103471,Woodstock Dr at Shannon Crt,49.85085,-119.6149,POINT (-119.6149 49.85085)
641,103469,Woodstock Dr at Sandstone Dr,49.84963,-119.6137,POINT (-119.6137 49.84963)
642,103481,Shannon Way at Westville Way,49.84902,-119.6156,POINT (-119.6156 49.84902)
643,103495,Shannon Lake Rd at Shannon Way,49.84942,-119.6201,POINT (-119.6201 49.84942)
644,103513,Shannon Lake Rd at Old Okanagan Hwy,49.8466,-119.6224,POINT (-119.6224 49.8466)
645,103542,3300 Blk Old Okanagan Hwy,49.84236,-119.62557,POINT (-119.62557 49.84236)
646,103552,Old Okanagan Hwy at Chieftain Rd,49.84021,-119.62556,POINT (-119.62556 49.84021)
647,103556,Old Okanagan Hwy at Quince Rd,49.8383,-119.62555,POINT (-119.62555 49.8383)
648,103565,Old Okanagan Hwy at Butt Rd,49.83656,-119.62553,POINT (-119.62553 49.83656)
649,103575,Old Okanagan Hwy at Bering Rd,49.83419,-119.62551,POINT (-119.62551 49.83419)
650,103593,Old Okanagan Hwy at Drought Rd,49.83067,-119.62549,POINT (-119.62549 49.83067)
651,103597,Main St at Hoskins Rd,49.82964,-119.62627,POINT (-119.62627 49.82964)
652,103596,Dobbin Rd at Old Okanagan Hwy,49.82867,-119.62476,POINT (-119.62476 49.82867)
653,103581,Gellatly Rd at Carrington Rd,49.82941,-119.62109,POINT (-119.62109 49.82941)
654,103580,Gellatly Rd at Witt Rd,49.82736,-119.61874,POINT (-119.61874 49.82736)
655,103586,Boucherie Rd at Gellatly Rd,49.82381,-119.61586,POINT (-119.61586 49.82381)
656,103065,Boucherie Rd at Carrall Rd,49.82514,-119.60949,POINT (-119.60949 49.82514)
657,103529,2040 Blk Boucherie Rd,49.82626,-119.60476,POINT (-119.60476 49.82626)
658,103519,2030 Blk Boucherie Rd,49.82671,-119.60205,POINT (-119.60205 49.82671)
659,103500,Old Boucherie Rd at Boucherie Rd,49.82767,-119.59875,POINT (-119.59875 49.82767)
660,103492,1900 Blk Old Boucherie Rd,49.8277,-119.59702,POINT (-119.59702 49.8277)
661,103484,Old Boucherie Rd at Hitchner Rd,49.82774,-119.59299,POINT (-119.59299 49.82774)
662,103467,Old Boucherie Rd at Pritchard Dr,49.82781,-119.58937,POINT (-119.58937 49.82781)
663,103452,Boucherie Rd at Pritchard Dr,49.83094,-119.58828,POINT (-119.58828 49.83094)
664,103418,Boucherie Rd at Green Bay Rd,49.83474,-119.57944,POINT (-119.57944 49.83474)
665,103351,Boucherie Rd at Mission Hill Rd,49.84013,-119.57359,POINT (-119.57359 49.84013)
666,103302,Boucherie Rd at Sunnyside Rd,49.84387,-119.56543,POINT (-119.56543 49.84387)
667,103266,Boucherie Rd at Gregory Rd,49.84694,-119.55991,POINT (-119.55991 49.84694)
668,103239,Boucherie Rd at Montigny Rd,49.84895,-119.55707,POINT (-119.55707 49.84895)
669,103217,Ogden Rd at Boucherie Rd,49.85288,-119.55563,POINT (-119.55563 49.85288)
670,103195,Thacker Dr at Beverly Pl,49.85252,-119.54781,POINT (-119.54781 49.85252)
671,103181,Thacker Dr at Collens Hill Rd,49.85383,-119.54566,POINT (-119.54566 49.85383)
672,103160,Thacker Dr at Douglas Rd,49.8564,-119.54544,POINT (-119.54544 49.8564)
673,103135,Anders Rd at Thacker Dr,49.86003,-119.54574,POINT (-119.54574 49.86003)
674,103164,Anders Rd at Olalla Rd,49.86031,-119.55198,POINT (-119.55198 49.86031)
675,103183,Hudson Rd at Boucherie Rd,49.86245,-119.55688,POINT (-119.55688 49.86245)
676,140065,Hudson Rd at Concord Rd,49.86268,-119.56288,POINT (-119.56288 49.86268)
677,103220,Alhambra Dr at Brentwood Rd,49.86203,-119.56697,POINT (-119.56697 49.86203)
678,103234,Brentwood Rd at Denny Crt,49.86127,-119.56926,POINT (-119.56926 49.86127)
679,103249,Brentwood Rd at Applewood Rd,49.86146,-119.57255,POINT (-119.57255 49.86146)
680,103299,Ross Rd at Cameron Rd,49.86073,-119.58302,POINT (-119.58302 49.86073)
681,103282,Ross Rd at Applegreen Crt,49.86076,-119.58012,POINT (-119.58012 49.86076)
682,103261,Brentwood Rd at Vista Way,49.8614,-119.57523,POINT (-119.57523 49.8614)
683,103254,Brentwood Rd at Applewood Rd,49.86137,-119.57259,POINT (-119.57259 49.86137)
684,103233,Brentwood Rd at Denny Crt,49.86118,-119.5693,POINT (-119.5693 49.86118)
685,103219,Alhambra Dr at Brentwood Rd,49.86201,-119.56683,POINT (-119.56683 49.86201)
686,140066,Hudson Rd at Westlake Rd,49.86265,-119.56391,POINT (-119.56391 49.86265)
687,103180,Hudson Rd at Boucherie Rd,49.86235,-119.5565,POINT (-119.5565 49.86235)
688,103163,Anders Rd at Olalla Rd,49.86016,-119.55063,POINT (-119.55063 49.86016)
689,103134,Anders Rd at Thacker Dr,49.85992,-119.54544,POINT (-119.54544 49.85992)
690,103167,Thacker Dr at Douglas Rd,49.85579,-119.5457,POINT (-119.5457 49.85579)
691,103182,Thacker Dr at Collens Hill Rd,49.85383,-119.54591,POINT (-119.54591 49.85383)
692,103197,Thacker Dr at Beverly Pl,49.85268,-119.54852,POINT (-119.54852 49.85268)
693,103216,Ogden Rd at Boucherie Rd,49.853,-119.55566,POINT (-119.55566 49.853)
694,103244,Boucherie Rd at Montigny Rd,49.84871,-119.55757,POINT (-119.55757 49.84871)
695,103268,Boucherie Rd at Gregory Rd,49.84647,-119.56099,POINT (-119.56099 49.84647)
696,103306,Boucherie Rd at Sunnyside Rd,49.84366,-119.56609,POINT (-119.56609 49.84366)
697,103359,Boucherie Rd at Mission Hill Rd,49.83973,-119.57402,POINT (-119.57402 49.83973)
698,103417,Boucherie Rd at Green Bay Rd,49.835,-119.5793,POINT (-119.5793 49.835)
699,103460,Pritchard Dr at Boucherie Rd,49.83058,-119.58902,POINT (-119.58902 49.83058)
700,103474,Old Boucherie Rd at Pritchard Dr,49.82791,-119.58995,POINT (-119.58995 49.82791)
701,103486,Old Boucherie Rd at Hitchner Rd,49.82783,-119.59359,POINT (-119.59359 49.82783)
702,103491,1900 Blk Old Boucherie Rd,49.82781,-119.59699,POINT (-119.59699 49.82781)
703,103510,Boucherie Rd at Sonoma Pines Dr,49.82765,-119.60019,POINT (-119.60019 49.82765)
704,103518,2030 Blk Boucherie Rd,49.82678,-119.60213,POINT (-119.60213 49.82678)
705,103532,2040 Blk Boucherie Rd,49.82617,-119.60524,POINT (-119.60524 49.82617)
706,103553,Boucherie Rd at Carrall Rd East Side,49.82524,-119.60947,POINT (-119.60947 49.82524)
707,103566,Boucherie Rd at Carrall Rd West Side,49.82474,-119.61267,POINT (-119.61267 49.82474)
708,103590,Boucherie Rd at Gellatly Rd,49.82377,-119.61659,POINT (-119.61659 49.82377)
709,103582,Gellatly Rd at Witt Rd,49.82757,-119.619,POINT (-119.619 49.82757)
710,103579,Gellatly Rd at Carrington Rd,49.82888,-119.62044,POINT (-119.62044 49.82888)
711,103328,Ross Rd at Bartley Rd,49.8602,-119.58971,POINT (-119.58971 49.8602)
712,103381,Ross Rd at Daimler Dr,49.85618,-119.594,POINT (-119.594 49.85618)
713,103395,Old Okanagan Hwy at Daimler Dr,49.85604,-119.59671,POINT (-119.59671 49.85604)
714,103435,Old Okanagan Hwy at Shamrock Dr,49.84924,-119.60116,POINT (-119.60116 49.84924)
715,103462,Old Okanagan Hwy at Louie Dr,49.84547,-119.60728,POINT (-119.60728 49.84547)
716,104911,Old Okanagan Hwy at Skyview Lane,49.84488,-119.60947,POINT (-119.60947 49.84488)
717,103505,Old Okanagan Hwy at Bayview Dr,49.8436,-119.61734,POINT (-119.61734 49.8436)
718,103672,Huston Rd at Lang Rd,49.79247,-119.70544,POINT (-119.70544 49.79247)
719,103682,Trepanier Bench Rd at Desert Pines Ave,49.78635,-119.71073,POINT (-119.71073 49.78635)
720,103686,Peachland Village Centre,49.78471,-119.71764,POINT (-119.71764 49.78471)
721,103689,13th St at Lake Ave,49.78264,-119.72329,POINT (-119.72329 49.78264)
722,103691,Beach Ave at 11th St,49.78188,-119.7291,POINT (-119.7291 49.78188)
723,103693,Beach Ave at 8th St,49.7805,-119.73201,POINT (-119.73201 49.7805)
724,103694,Beach Ave at 6th St,49.77759,-119.73379,POINT (-119.73379 49.77759)
725,140221,Beach Ave at 4th St,49.77477,-119.73514,POINT (-119.73514 49.77477)
726,103701,Beach Ave at Hwy 97,49.77045,-119.73964,POINT (-119.73964 49.77045)
727,103705,Princeton Ave at Somerset Ave,49.76668,-119.74825,POINT (-119.74825 49.76668)
728,103708,Princeton Ave at Lipsett Ave,49.76466,-119.75171,POINT (-119.75171 49.76466)
729,103710,Princeton Ave at Ellison Ave,49.7623,-119.75708,POINT (-119.75708 49.7623)
730,103712,Princeton Ave at Turner Ave,49.75959,-119.76161,POINT (-119.76161 49.75959)
731,103714,Princeton Ave at Whinton Cres,49.75688,-119.76399,POINT (-119.76399 49.75688)
732,103716,Princeton Ave at Vernon Ave,49.75505,-119.76698,POINT (-119.76698 49.75505)
733,103717,5000 Blk Princeton Ave,49.75376,-119.77165,POINT (-119.77165 49.75376)
734,103719,Princeton Ave at Forest Hill Dr,49.75239,-119.77841,POINT (-119.77841 49.75239)
735,103721,Princeton Ave at Pineridge Rd,49.7521,-119.78355,POINT (-119.78355 49.7521)
736,103723,Princeton Ave at Bradbury St,49.75194,-119.78764,POINT (-119.78764 49.75194)
737,103722,Princeton Ave at Pineridge Rd,49.752,-119.78354,POINT (-119.78354 49.752)
738,103720,Princeton Ave at Keyes Ave,49.75229,-119.77856,POINT (-119.77856 49.75229)
739,103718,5000 Blk Princeton Ave,49.75369,-119.77149,POINT (-119.77149 49.75369)
740,103715,Princeton Ave at Vernon Ave,49.75512,-119.76637,POINT (-119.76637 49.75512)
741,103713,Princeton Ave at Whinton Cres,49.757,-119.76356,POINT (-119.76356 49.757)
742,103711,Princeton Ave at Turner Ave,49.75947,-119.76076,POINT (-119.76076 49.75947)
743,103709,Princeton Ave at Gummow Rd,49.76258,-119.75472,POINT (-119.75472 49.76258)
744,103707,Princeton Ave at Lipsett Ave,49.76471,-119.75143,POINT (-119.75143 49.76471)
745,103706,Princeton Ave at Somerset Ave,49.76624,-119.74866,POINT (-119.74866 49.76624)
746,103703,Princeton Ave at Princess St,49.76884,-119.74467,POINT (-119.74467 49.76884)
747,103700,Beach Ave at Hwy 97,49.77085,-119.73908,POINT (-119.73908 49.77085)
748,140222,Beach Ave at 4th St,49.7747,-119.73506,POINT (-119.73506 49.7747)
749,103695,Beach Ave at 6th St,49.77638,-119.73427,POINT (-119.73427 49.77638)
750,103692,Beach Ave at 11th St,49.78121,-119.73113,POINT (-119.73113 49.78121)
751,104912,Beach Ave at 12th St,49.78188,-119.72608,POINT (-119.72608 49.78188)
752,103690,13th St at Lake Ave,49.7827,-119.72315,POINT (-119.72315 49.7827)
753,103675,Buchanan Rd at Hwy 97,49.78912,-119.70749,POINT (-119.70749 49.78912)
754,103671,Buchanan Rd at Beach Ave,49.79245,-119.70261,POINT (-119.70261 49.79245)
755,103667,Buchanan Rd at Burdekin Lane,49.79458,-119.69935,POINT (-119.69935 49.79458)
756,103528,Old Okanagan Hwy at Shannon Lake Rd,49.84479,-119.62391,POINT (-119.62391 49.84479)
757,103502,Old Okanagan Hwy at Bayview Dr,49.84351,-119.61736,POINT (-119.61736 49.84351)
758,103473,Old Okanagan Hwy at Skyview Lane,49.84478,-119.60989,POINT (-119.60989 49.84478)
759,103459,Old Okanagan Hwy at Louie Dr,49.84551,-119.6064,POINT (-119.6064 49.84551)
760,103434,Old Okanagan Hwy at Shamrock Dr,49.84915,-119.60106,POINT (-119.60106 49.84915)
761,103393,Old Okanagan Hwy at Daimler Dr,49.85604,-119.59657,POINT (-119.59657 49.85604)
762,103379,Ross Rd at Daimler Dr,49.85624,-119.59386,POINT (-119.59386 49.85624)
763,103329,Ross Rd at Bartley Rd,49.86011,-119.58953,POINT (-119.58953 49.86011)
764,103537,Butt Rd at Louie Dr,49.83691,-119.61937,POINT (-119.61937 49.83691)
765,140067,Louie Dr at Butt Rd,49.83779,-119.61573,POINT (-119.61573 49.83779)
766,140068,Louie Dr at Elk Rd,49.84031,-119.61231,POINT (-119.61231 49.84031)
767,103527,Butt Rd at Carrington Rd,49.83535,-119.61439,POINT (-119.61439 49.83535)
768,103508,3500 Blk Carrington Rd,49.83681,-119.61117,POINT (-119.61117 49.83681)
769,103483,Carrington Rd at Elk Rd,49.83844,-119.60908,POINT (-119.60908 49.83844)
770,140117,Elk Rd at Acorn Dr,49.83913,-119.60606,POINT (-119.60606 49.83913)
771,103463,Elk Rd at Cougar Rd,49.839,-119.60133,POINT (-119.60133 49.839)
772,103447,Ridge Estates Dr at Elk Rd,49.8362,-119.59467,POINT (-119.59467 49.8362)
773,140095,East Boundary Rd at Wolfe Rd,49.83921,-119.59181,POINT (-119.59181 49.83921)
774,103422,East Boundary Rd at Elk Rd,49.84047,-119.58896,POINT (-119.58896 49.84047)
775,103403,East Boundary Rd at Vineyard Drive,49.84568,-119.589,POINT (-119.589 49.84568)
776,103388,3100 Blk East Boundary Rd,49.8486,-119.58899,POINT (-119.58899 49.8486)
777,103389,3100 Blk East Boundary Rd,49.84856,-119.58912,POINT (-119.58912 49.84856)
778,103407,East Boundary Rd at Eagle Crt,49.84488,-119.58914,POINT (-119.58914 49.84488)
779,103427,East Boundary Rd at Elk Rd,49.84023,-119.5891,POINT (-119.5891 49.84023)
780,140094,East Boundary Rd at Wolfe Rd,49.8393,-119.5918,POINT (-119.5918 49.8393)
781,103450,Elk Rd at Ridge Estates Dr,49.83628,-119.59588,POINT (-119.59588 49.83628)
782,103465,Elk Rd at Cougar Rd,49.83914,-119.60246,POINT (-119.60246 49.83914)
783,140116,Elk Rd at Acorn Dr,49.83922,-119.60591,POINT (-119.60591 49.83922)
784,103485,Carrington Rd at Elk Rd,49.83866,-119.60907,POINT (-119.60907 49.83866)
785,103509,3500 Blk Carrington Rd,49.83686,-119.6113,POINT (-119.6113 49.83686)
786,103525,Butt Rd at Carrington Rd,49.83557,-119.61434,POINT (-119.61434 49.83557)
787,103497,Louie Dr at Elk Rd,49.84029,-119.61252,POINT (-119.61252 49.84029)
788,103511,Louie Dr at Butt Rd,49.8385,-119.61494,POINT (-119.61494 49.8385)
789,103535,Butt Rd at Louie Dr,49.837,-119.61936,POINT (-119.61936 49.837)
790,103609,Airport Way at Old Vernon Rd,49.96977,-119.38373,POINT (-119.38373 49.96977)
791,103607,Airport Way at Lapointe Dr,49.96419,-119.38187,POINT (-119.38187 49.96419)
792,103574,5600 Blk Airport Way,49.95571,-119.38163,POINT (-119.38163 49.95571)
793,103656,Kelowna Airport,49.95206,-119.3833,POINT (-119.3833 49.95206)
794,103680,Kelowna Airport,49.95212,-119.38314,POINT (-119.38314 49.95212)
795,103569,5600 Blk Airport Way,49.95585,-119.38145,POINT (-119.38145 49.95585)
796,103604,Airport Way at Lapointe Dr,49.96414,-119.38173,POINT (-119.38173 49.96414)
797,103610,Airport Way at Old Vernon Rd,49.9695,-119.38341,POINT (-119.38341 49.9695)
798,103425,Old Vernon Rd at Acland Rd,49.91813,-119.38287,POINT (-119.38287 49.91813)
799,103480,Old Vernon Rd at Morrison Rd,49.91807,-119.36946,POINT (-119.36946 49.91807)
800,103506,Old Vernon Rd at McKenzie Rd,49.91962,-119.36414,POINT (-119.36414 49.91962)
801,103548,Old Vernon Rd at Scotty Creek Rd,49.93301,-119.36409,POINT (-119.36409 49.93301)
802,103561,3600 Blk Old Vernon Rd,49.93716,-119.36407,POINT (-119.36407 49.93716)
803,103576,Old Vernon Rd at Bulman Rd,49.94041,-119.36411,POINT (-119.36411 49.94041)
804,103600,Old Vernon Rd at Black Rd,49.95113,-119.36867,POINT (-119.36867 49.95113)
805,104913,Old Vernon Rd at Teather Rd,49.96147,-119.36886,POINT (-119.36886 49.96147)
806,103620,Old Vernon Rd at Spencer Rd,49.97048,-119.3707,POINT (-119.3707 49.97048)
807,103619,Old Vernon Rd at Spencer Rd,49.97036,-119.3707,POINT (-119.3707 49.97036)
808,103613,Old Vernon Rd at Teather Rd,49.96097,-119.36898,POINT (-119.36898 49.96097)
809,103599,Old Vernon Rd at Black Rd,49.95112,-119.36886,POINT (-119.36886 49.95112)
810,103577,Old Vernon Rd at Bulman Rd,49.94079,-119.36455,POINT (-119.36455 49.94079)
811,103564,3700 Blk Old Vernon Rd,49.93754,-119.36421,POINT (-119.36421 49.93754)
812,103547,Old Vernon Rd at Scotty Creek Rd,49.93322,-119.36423,POINT (-119.36423 49.93322)
813,103503,Old Vernon Rd at McKenzie Rd,49.91962,-119.36428,POINT (-119.36428 49.91962)
814,103478,Old Vernon Rd at Morrison Rd,49.91821,-119.37012,POINT (-119.37012 49.91821)
815,140176,Elliott Rd at Solar Rd,49.8312,-119.63098,POINT (-119.63098 49.8312)
816,140174,Elliott Rd at Springer Lane,49.83371,-119.63103,POINT (-119.63103 49.83371)
817,140172,Elliott Rd at Butt Rd,49.83711,-119.63103,POINT (-119.63103 49.83711)
818,140175,Elliott Rd at Nuefeld Cres,49.84168,-119.63387,POINT (-119.63387 49.84168)
819,140173,Elliott Rd at Reece Rd,49.8443,-119.63392,POINT (-119.63392 49.8443)
820,140196,Smith Creek Rd at Elliott Rd,49.84772,-119.63908,POINT (-119.63908 49.84772)
821,140197,Smith Creek Rd at Wild Horse Dr,49.85124,-119.64235,POINT (-119.64235 49.85124)
822,140167,Copper Ridge Dr at Smith Creek Rd,49.85379,-119.64351,POINT (-119.64351 49.85379)
823,140192,Whispering Hills Dr at Copper Ridge Dr,49.8531,-119.64055,POINT (-119.64055 49.8531)
824,140178,2600 Blk Wild Horse Dr,49.85309,-119.63649,POINT (-119.63649 49.85309)
825,140171,Wild Horse Dr at Bridlehill Dr,49.85374,-119.63274,POINT (-119.63274 49.85374)
826,140183,Ironridge Rd at Ironridge Crt,49.85452,-119.62768,POINT (-119.62768 49.85452)
827,140166,Asquith Rd at Saddleback Way,49.8512,-119.62468,POINT (-119.62468 49.8512)
828,140187,Shannon Lake Rd at Shannon Ridge Dr,49.85308,-119.61752,POINT (-119.61752 49.85308)
829,140189,Shannon Lake Rd at Alexandria Way,49.85531,-119.61792,POINT (-119.61792 49.85531)
830,140188,Shannon Lake Rd at Canyon Crest Dr,49.85823,-119.6168,POINT (-119.6168 49.85823)
831,140190,Shannon Lake Rd at Tallus Ridge Dr,49.86248,-119.61289,POINT (-119.61289 49.86248)
832,140184,Shannon Lake Rd at Golf Course Dr,49.86354,-119.6094,POINT (-119.6094 49.86354)
833,140185,Shannon Lake Rd at Shannon View Dr,49.86596,-119.6049,POINT (-119.6049 49.86596)
834,140186,Shannon Lake Rd at Shannon Lake Dr,49.86691,-119.59986,POINT (-119.59986 49.86691)
835,140169,Shannon Lake Rd at Crystal Dr,49.86732,-119.59091,POINT (-119.59091 49.86732)
836,140201,Bartley Rd at Shannon Lake Rd,49.86403,-119.58783,POINT (-119.58783 49.86403)
837,103262,Ross Rd at Brentwood Rd,49.86189,-119.57587,POINT (-119.57587 49.86189)
838,103258,Ross Rd at Western Rd,49.86368,-119.57583,POINT (-119.57583 49.86368)
839,103251,Ross Rd at Stevens Rd,49.86582,-119.57582,POINT (-119.57582 49.86582)
840,103230,1400 Blk Stevens Rd,49.86627,-119.57189,POINT (-119.57189 49.86627)
841,140069,Stevens Rd at Mcdougall Rd,49.86598,-119.5675,POINT (-119.5675 49.86598)
842,103173,Westlake Rd at Caledonia Way,49.87347,-119.56304,POINT (-119.56304 49.87347)
843,103178,Westlake Rd at Rosewood Dr,49.8777,-119.5663,POINT (-119.5663 49.8777)
844,103161,Westlake Rd at Starlight Cres,49.87915,-119.56426,POINT (-119.56426 49.87915)
845,140153,Westlake Rd at Peak Point Rd,49.88398,-119.56054,POINT (-119.56054 49.88398)
846,103115,Westlake Rd at Horizon Dr,49.88503,-119.55698,POINT (-119.55698 49.88503)
847,103110,Westlake Rd at Keloka Way,49.88711,-119.55568,POINT (-119.55568 49.88711)
848,103094,Parkinson Rd at Westlake Rd,49.89125,-119.55277,POINT (-119.55277 49.89125)
849,140154,Parkinson Rd at Pettman Rd,49.89593,-119.54971,POINT (-119.54971 49.89593)
850,103066,Parkinson Rd at Bear Creek Rd,49.89893,-119.54703,POINT (-119.54703 49.89893)
851,140155,Bear Creek Rd at Vancouver Rd,49.89527,-119.54744,POINT (-119.54744 49.89527)
852,103043,Westside Rd at Bear Creek Rd,49.89228,-119.54262,POINT (-119.54262 49.89228)
853,103047,Westside Rd at Westpoint Park,49.88551,-119.54411,POINT (-119.54411 49.88551)
854,103027,Westside Rd at Nancee Way,49.88307,-119.53813,POINT (-119.53813 49.88307)
855,140013,Sneena Rd at Westside Rd,49.88071,-119.5341,POINT (-119.5341 49.88071)
856,103078,Boucherie Rd at Hayman Rd,49.87266,-119.5447,POINT (-119.5447 49.87266)
857,103162,Boucherie Rd at Stuart Rd,49.86412,-119.5551,POINT (-119.5551 49.86412)
858,140092,Bottom Wood Lake Rd at Powley Crt,50.0383,-119.40293,POINT (-119.40293 50.0383)
859,140091,Bottom Wood Lake Rd at Mayrus Rd,50.04335,-119.40297,POINT (-119.40297 50.04335)
860,140090,Bottom Wood Lake Rd at Wageman Rd,50.04629,-119.40299,POINT (-119.40299 50.04629)
861,140096,Lake Hill Dr at Oceola Rd,50.06138,-119.41821,POINT (-119.41821 50.06138)
862,140080,Lake Hill Dr at Lake Breeze Crt,50.06598,-119.41901,POINT (-119.41901 50.06598)
863,140082,Shoreline Way at Lake Hill Dr,50.07352,-119.41726,POINT (-119.41726 50.07352)
864,140083,Lake Hill Dr at Shoreline Way,50.07171,-119.41646,POINT (-119.41646 50.07171)
865,140084,Stillwater Way at Lake Hill Dr,50.06954,-119.41854,POINT (-119.41854 50.06954)
866,140085,Shoreline Dr at Driftwood Crt,50.06784,-119.41929,POINT (-119.41929 50.06784)
867,140086,Lake Hill Dr at Lake Breeze Crt,50.06626,-119.41895,POINT (-119.41895 50.06626)
868,140087,Lake Hill Dr at Oceola Rd,50.06129,-119.41834,POINT (-119.41834 50.06129)
869,140088,Oceola Rd at Pretty Rd,50.0547,-119.41142,POINT (-119.41142 50.0547)
870,140089,Woodsdale Rd at Turtle Bay Crt,50.04925,-119.40761,POINT (-119.40761 50.04925)
871,140054,Woodsdale Rd at Bottom Wood Lake Rd,50.04924,-119.404,POINT (-119.404 50.04924)
872,140079,Bottom Wood Lake Rd at Wageman Rd,50.04597,-119.40312,POINT (-119.40312 50.04597)
873,140078,Bottom Wood Lake Rd at Mayrus Rd,50.04311,-119.4031,POINT (-119.4031 50.04311)
874,140077,Bottom Wood Lake Rd at Powley Crt,50.03782,-119.40308,POINT (-119.40308 50.03782)
875,140093,Bottom Wood Lake Rd at Berry Rd,50.03032,-119.40192,POINT (-119.40192 50.03032)
876,140014,Bottom Wood Lake Rd at Konschuh Rd,50.02872,-119.40067,POINT (-119.40067 50.02872)
877,140015,Bottom Wood Lake Rd at Seniors Centre,50.02447,-119.39926,POINT (-119.39926 50.02447)
878,140016,Beaver Lake Rd at Jensen Rd,50.02018,-119.40119,POINT (-119.40119 50.02018)
879,140017,Main St at Hill Rd,50.02083,-119.40426,POINT (-119.40426 50.02083)
880,140180,Bartley Rd at Byland Rd,49.86302,-119.58757,POINT (-119.58757 49.86302)
881,140210,Shannon Lake Rd at Crystal Dr,49.86869,-119.59306,POINT (-119.59306 49.86869)
882,140212,Shannon Lake Rd at Shannon Woods Dr,49.86578,-119.60611,POINT (-119.60611 49.86578)
883,140191,Shannon Lake Rd at Tallus Ridge Dr,49.86323,-119.612,POINT (-119.612 49.86323)
884,140205,Shannon Lake Rd at Canyon Crest Dr,49.85825,-119.61694,POINT (-119.61694 49.85825)
885,140204,Shannon Lake Rd at Alexandria Way,49.85515,-119.61803,POINT (-119.61803 49.85515)
886,140206,Shannon Lake Rd at Asquith Rd,49.85159,-119.61851,POINT (-119.61851 49.85159)
887,140058,Asquith Rd at Saddleback Way,49.8507,-119.62354,POINT (-119.62354 49.8507)
888,140059,Ironridge Rd at Ironridge Pl,49.8545,-119.62783,POINT (-119.62783 49.8545)
889,140060,Wild Horse Dr at Bridlehill Dr East Side,49.85388,-119.63302,POINT (-119.63302 49.85388)
890,140061,Wild Horse Dr at Bridlehill Dr West Side,49.85346,-119.63555,POINT (-119.63555 49.85346)
891,140062,Whispering Hills Dr at Wild Horse Dr,49.85228,-119.64166,POINT (-119.64166 49.85228)
892,140063,Copper Ridge Dr at Smith Creek Rd,49.85389,-119.64384,POINT (-119.64384 49.85389)
893,140064,Smith Creek Rd at Sugosa Pl,49.85176,-119.6431,POINT (-119.6431 49.85176)
894,103589,Smith Creek Rd at Elliott Rd,49.84782,-119.63926,POINT (-119.63926 49.84782)
895,103573,Elliott Rd at Reece Rd,49.84423,-119.63405,POINT (-119.63405 49.84423)
896,103585,Elliott Rd at Nuefeld Cres,49.84199,-119.63402,POINT (-119.63402 49.84199)
897,103594,Elliott Rd at Butt Rd,49.83642,-119.63117,POINT (-119.63117 49.83642)
898,103598,3600 Blk Elliott Rd,49.83354,-119.63114,POINT (-119.63114 49.83354)
899,103602,Elliott Rd at Delray Rd,49.83015,-119.63108,POINT (-119.63108 49.83015)
900,103457,Okanagan College Exchange Bay C,49.86095,-119.4812,POINT (-119.4812 49.86095)
901,103038,K.L.O. Rd at Gordon Dr,49.86091,-119.47554,POINT (-119.47554 49.86091)
902,103045,K.L.O. Rd at Holland Rd,49.86091,-119.47253,POINT (-119.47253 49.86091)
903,103059,K.L.O. Rd at St Amand Rd,49.8609,-119.46676,POINT (-119.46676 49.8609)
904,103088,K.L.O. Rd at Benvoulin Rd West Side,49.86088,-119.45995,POINT (-119.45995 49.86088)
905,103084,K.L.O. Rd at Benvoulin Rd West Side,49.86104,-119.45854,POINT (-119.45854 49.86104)
906,103042,K.L.O. Rd at Holland Rd,49.86109,-119.47275,POINT (-119.47275 49.86109)
907,103039,Lanfranco Rd at Lakeshore Rd,49.85815,-119.4903,POINT (-119.4903 49.85815)
908,103326,Dougall Rd N at McIntosh Rd,49.89262,-119.39273,POINT (-119.39273 49.89262)
909,103335,Leathead Rd at Asher Rd,49.8953,-119.39157,POINT (-119.39157 49.8953)
910,103375,Rutland Rd N at Hardie Rd,49.89512,-119.38697,POINT (-119.38697 49.89512)
911,140181,Byland Rd at Kyle Rd,49.85908,-119.5919,POINT (-119.5919 49.85908)
912,103844,Princeton Ave at Pierce St,49.75315,-119.7902,POINT (-119.7902 49.75315)
913,103063,Bear Creek Rd at McNaughton Rd,49.89299,-119.54761,POINT (-119.54761 49.89299)
914,140163,John Hindle Dr at Glenmore Landfill,49.94415,-119.41218,POINT (-119.41218 49.94415)
915,103664,Lodge Rd at Meadow Rd,50.03467,-119.39688,POINT (-119.39688 50.03467)
916,103685,Oceola Rd at Pretty Rd,50.05535,-119.41125,POINT (-119.41125 50.05535)
917,103627,Webber Rd at Salloum Rd,49.83,-119.6532,POINT (-119.6532 49.83)
918,103623,Webber Rd at Scottstown Rd,49.83283,-119.65316,POINT (-119.65316 49.83283)
919,103617,Webber Rd at Aberdeen Rd,49.8354,-119.65331,POINT (-119.65331 49.8354)
920,103616,Webber Rd at Gorman Rd,49.83695,-119.65332,POINT (-119.65332 49.83695)
921,103665,Huston Rd at Walker Rd,49.79564,-119.69837,POINT (-119.69837 49.79564)
922,103669,Huston Rd at Shaw Rd,49.79477,-119.70139,POINT (-119.70139 49.79477)
923,103702,Princeton Ave at Lakeview Ave,49.76999,-119.7425,POINT (-119.7425 49.76999)
924,103704,Princeton Ave at Columbia Ave,49.76867,-119.74559,POINT (-119.74559 49.76867)
925,140158,K.L.O. Rd at Benvoulin Rd East Side,49.86109,-119.45483,POINT (-119.45483 49.86109)
926,103848,Country Club Dr at Quail Ridge Blvd,49.96292,-119.39911,POINT (-119.39911 49.96292)
927,103849,Country Club Dr at Via Centrale,49.95503,-119.39992,POINT (-119.39992 49.95503)
928,103853,1800 Blk Country Club Dr,49.953,-119.39964,POINT (-119.39964 49.953)
929,103858,1700 Blk Country Club Dr,49.95116,-119.39982,POINT (-119.39982 49.95116)
930,103852,1800 Blk Country Club Dr,49.95311,-119.39954,POINT (-119.39954 49.95311)
931,103845,Country Club Dr at Via Centrale,49.95498,-119.39983,POINT (-119.39983 49.95498)
932,103851,Quail Ridge Blvd at Country Club Dr,49.96253,-119.39818,POINT (-119.39818 49.96253)
933,103392,Rutland Rd N at Fitzpatrick Rd,49.90671,-119.38689,POINT (-119.38689 49.90671)
934,140240,Springfield Rd at Leckie Rd,49.87982,-119.4261,POINT (-119.4261 49.87982)
935,102994,Parkinson Way at Ufton Crt,49.8831,-119.45592,POINT (-119.45592 49.8831)
936,102993,Parkinson Way at Ufton Crt,49.88315,-119.45636,POINT (-119.45636 49.88315)
937,140249,Innovation Dr at Spectrum Crt,49.94857,-119.38921,POINT (-119.38921 49.94857)
938,140248,Innovation Dr at Spectrum Ave,49.94787,-119.38919,POINT (-119.38919 49.94787)
939,140250,Innovation Dr at Fleet Ave,49.94975,-119.38983,POINT (-119.38983 49.94975)
940,140251,Innovation Dr at Fleet Crt,49.95003,-119.38966,POINT (-119.38966 49.95003)
941,102985,Harvey Ave at Parkinson Stn,49.88182,-119.45904,POINT (-119.45904 49.88182)
942,140252,Valley at Glen Park,49.91716,-119.4362,POINT (-119.4362 49.91716)
943,103203,Valley at Longhill,49.91993,-119.43419,POINT (-119.43419 49.91993)
944,140247,South Perimeter Way at Mountainside Dr,49.78899,-119.52113,POINT (-119.52113 49.78899)
945,140254,Rutland Rd N at McIntosh Rd,49.89226,-119.38696,POINT (-119.38696 49.89226)
946,140256,Steele Rd at Arbor View Dr,49.80637,-119.4723,POINT (-119.4723 49.80637)
947,140259,Acland Rd at Old Vernon Rd,49.91874,-119.38408,POINT (-119.38408 49.91874)
948,140258,Sutherland Ave at Chandler St,49.88028,-119.46876,POINT (-119.46876 49.88028)
949,140269,Valley Rd at Drysdale Blvd,49.92323,-119.43303,POINT (-119.43303 49.92323)
950,140211,Shannon Lake Rd at Shannon Woods Dr,49.86682,-119.60065,POINT (-119.60065 49.86682)
